{"hom":[{"long":-102.7468,"lat":22.9569,"state_code":32,"mun_code":5,"date":"2016-10-01","name":"CALERA, ZAC","count":5,"rate":134.971},{"long":-114.9585,"lat":30.0362,"state_code":2,"mun_code":1,"date":"2016-10-01","name":"ENSENADA, BC","count":5,"rate":10.9508},{"long":-105.6858,"lat":22.7241,"state_code":25,"mun_code":9,"date":"2016-10-01","name":"ESCUINAPA, SIN","count":6,"rate":117.3179},{"long":-102.4076,"lat":22.7802,"state_code":32,"mun_code":17,"date":"2016-10-01","name":"GUADALUPE, ZAC","count":7,"rate":44.0278},{"long":-95.5584,"lat":18.0821,"state_code":30,"mun_code":77,"date":"2016-10-01","name":"ISLA, VER","count":6,"rate":153.0161},{"long":-110.6633,"lat":24.1905,"state_code":3,"mun_code":3,"date":"2016-10-01","name":"LA PAZ, BCS","count":13,"rate":50.2633},{"long":-116.8907,"lat":32.2529,"state_code":2,"mun_code":5,"date":"2016-10-01","name":"PLAYAS DE ROSARITO, BC","count":9,"rate":97.0357},{"long":-102.7663,"lat":20.0551,"state_code":16,"mun_code":76,"date":"2016-10-01","name":"SAHUAYO, MICH","count":6,"rate":86.7314},{"long":-101.7885,"lat":20.9191,"state_code":11,"mun_code":31,"date":"2016-10-01","name":"SAN FRANCISCO DEL RINCON, GTO","count":6,"rate":57.9202},{"long":-100.3748,"lat":25.6446,"state_code":19,"mun_code":19,"date":"2016-10-01","name":"SAN PEDRO GARZA GARCIA, NL","count":5,"rate":43.7216}],"rvcv":[{"long":-94.1608,"lat":18.0849,"state_code":30,"mun_code":204,"date":"2016-10-01","name":"AGUA DULCE, VER","count":8,"rate":192.6693},{"long":-98.0531,"lat":19.0473,"state_code":21,"mun_code":15,"date":"2016-10-01","name":"AMOZOC, PUE","count":7,"rate":67.7188},{"long":-109.8868,"lat":27.7928,"state_code":26,"mun_code":18,"date":"2016-10-01","name":"CAJEME, SON","count":17,"rate":43.3731},{"long":-100.7879,"lat":20.5376,"state_code":11,"mun_code":7,"date":"2016-10-01","name":"CELAYA, GTO","count":20,"rate":46.0369},{"long":-94.5681,"lat":18.0162,"state_code":30,"mun_code":48,"date":"2016-10-01","name":"COSOLEACAQUE, VER","count":14,"rate":125.36},{"long":-100.059,"lat":17.1425,"state_code":12,"mun_code":21,"date":"2016-10-01","name":"COYUCA DE BENITEZ, GRO","count":5,"rate":75.5134},{"long":-92.0878,"lat":15.7627,"state_code":7,"mun_code":34,"date":"2016-10-01","name":"FRONTERA COMALAPA, CHPS","count":7,"rate":105.9668},{"long":-99.5821,"lat":18.2268,"state_code":12,"mun_code":35,"date":"2016-10-01","name":"IGUALA DE LA INDEPENDENCIA, GRO","count":20,"rate":154.1727},{"long":-93.9572,"lat":17.5358,"state_code":30,"mun_code":61,"date":"2016-10-01","name":"LAS CHOAPAS, VER","count":11,"rate":153.4585},{"long":-101.855,"lat":18.0167,"state_code":12,"mun_code":68,"date":"2016-10-01","name":"LA UNION DE ISIDORO MONTES DE OCA, GRO","count":11,"rate":487.3414},{"long":-109.4027,"lat":27.0781,"state_code":26,"mun_code":42,"date":"2016-10-01","name":"NAVOJOA, SON","count":8,"rate":53.1696},{"long":-116.82,"lat":32.4041,"state_code":2,"mun_code":4,"date":"2016-10-01","name":"TIJUANA, BC","count":63,"rate":41.6503},{"long":-96.2217,"lat":19.1858,"state_code":30,"mun_code":193,"date":"2016-10-01","name":"VERACRUZ, VER","count":44,"rate":86.4915},{"long":-103.4942,"lat":20.7949,"state_code":14,"mun_code":120,"date":"2016-10-01","name":"ZAPOPAN, JAL","count":61,"rate":52.0468},{"long":-101.909,"lat":19.4285,"state_code":16,"mun_code":111,"date":"2016-10-01","name":"ZIRACUARETIRO, MICH","count":6,"rate":429.0746}],"rvsv":[{"long":-94.1608,"lat":18.0849,"state_code":30,"mun_code":204,"date":"2016-10-01","name":"AGUA DULCE, VER","count":18,"rate":433.506},{"long":-92.5862,"lat":18.3614,"state_code":27,"mun_code":3,"date":"2016-10-01","name":"CENTLA, TAB","count":5,"rate":53.7172},{"long":-103.1879,"lat":20.2599,"state_code":14,"mun_code":30,"date":"2016-10-01","name":"CHAPALA, JAL","count":15,"rate":325.9244},{"long":-93.2207,"lat":18.0766,"state_code":27,"mun_code":6,"date":"2016-10-01","name":"CUNDUACAN, TAB","count":27,"rate":230.7488},{"long":-93.6998,"lat":17.8264,"state_code":27,"mun_code":8,"date":"2016-10-01","name":"HUIMANGUILLO, TAB","count":26,"rate":158.9812},{"long":-92.5469,"lat":15.097,"state_code":7,"mun_code":40,"date":"2016-10-01","name":"HUIXTLA, CHPS","count":8,"rate":166.4157},{"long":-93.9572,"lat":17.5358,"state_code":30,"mun_code":61,"date":"2016-10-01","name":"LAS CHOAPAS, VER","count":22,"rate":306.917},{"long":-109.7533,"lat":23.2766,"state_code":3,"mun_code":8,"date":"2016-10-01","name":"LOS CABOS, BCS","count":70,"rate":253.3214},{"long":-92.4586,"lat":17.845,"state_code":27,"mun_code":12,"date":"2016-10-01","name":"MACUSPANA, TAB","count":16,"rate":115.0796},{"long":-92.9486,"lat":18.1879,"state_code":27,"mun_code":13,"date":"2016-10-01","name":"NACAJUCA, TAB","count":12,"rate":102.3126},{"long":-94.3914,"lat":18.0628,"state_code":30,"mun_code":206,"date":"2016-10-01","name":"NANCHITAL DE LAZARO CARDENAS DEL RIO, VER","count":6,"rate":246.7156},{"long":-98.1972,"lat":19.1723,"state_code":29,"mun_code":41,"date":"2016-10-01","name":"PAPALOTLA DE XICOHTENCATL, TLAX","count":8,"rate":309.6774},{"long":-102.229,"lat":22.0331,"state_code":1,"mun_code":11,"date":"2016-10-01","name":"SAN FRANCISCO DE LOS ROMO, AGS","count":10,"rate":280.3965},{"long":-96.6797,"lat":17.0453,"state_code":20,"mun_code":350,"date":"2016-10-01","name":"SAN SEBASTIAN TUTLA, OAX","count":5,"rate":332.9578},{"long":-102.2487,"lat":19.8726,"state_code":16,"mun_code":85,"date":"2016-10-01","name":"TANGANCICUARO, MICH","count":11,"rate":372.4798},{"long":-97.4451,"lat":18.4613,"state_code":21,"mun_code":156,"date":"2016-10-01","name":"TEHUACAN, PUE","count":38,"rate":147.9564}],"lesions":[{"long":-103.6088,"lat":20.4285,"state_code":14,"mun_code":2,"date":"2016-10-01","name":"ACATLAN DE JUAREZ, JAL","count":13,"rate":615.6169},{"long":-102.3429,"lat":20.4888,"state_code":14,"mun_code":16,"date":"2016-10-01","name":"AYOTLAN, JAL","count":7,"rate":196.2065},{"long":-98.9497,"lat":21.1284,"state_code":13,"mun_code":18,"date":"2016-10-01","name":"CHAPULHUACAN, HGO","count":6,"rate":296.0839},{"long":-111.8201,"lat":25.4913,"state_code":3,"mun_code":1,"date":"2016-10-01","name":"COMONDU, BCS","count":20,"rate":283.2208},{"long":-100.3568,"lat":25.9007,"state_code":19,"mun_code":10,"date":"2016-10-01","name":"EL CARMEN, NL","count":14,"rate":730.7981},{"long":-101.1051,"lat":18.6539,"state_code":16,"mun_code":38,"date":"2016-10-01","name":"HUETAMO, MICH","count":8,"rate":219.2096},{"long":-95.3659,"lat":17.9815,"state_code":30,"mun_code":94,"date":"2016-10-01","name":"JUAN RODRIGUEZ CLARA, VER","count":5,"rate":147.1441},{"long":-102.0723,"lat":20.3056,"state_code":16,"mun_code":69,"date":"2016-10-01","name":"LA PIEDAD, MICH","count":5,"rate":54.6948},{"long":-96.6461,"lat":16.3484,"state_code":20,"mun_code":59,"date":"2016-10-01","name":"MIAHUATLAN DE PORFIRIO DIAZ, OAX","count":7,"rate":169.4572},{"long":-102.7241,"lat":20.3974,"state_code":14,"mun_code":63,"date":"2016-10-01","name":"OCOTLAN, JAL","count":8,"rate":93.8407},{"long":-98.7822,"lat":20.1021,"state_code":13,"mun_code":48,"date":"2016-10-01","name":"PACHUCA DE SOTO, HGO","count":129,"rate":547.5302},{"long":-100.2704,"lat":26.1611,"state_code":19,"mun_code":45,"date":"2016-10-01","name":"SALINAS VICTORIA, NL","count":11,"rate":344.3272},{"long":-96.9222,"lat":15.862,"state_code":20,"mun_code":401,"date":"2016-10-01","name":"SANTA MARIA COLOTEPEC, OAX","count":5,"rate":229.3408},{"long":-96.2233,"lat":15.7962,"state_code":20,"mun_code":413,"date":"2016-10-01","name":"SANTA MARIA HUATULCO, OAX","count":8,"rate":213.659},{"long":-95.3916,"lat":16.2217,"state_code":20,"mun_code":515,"date":"2016-10-01","name":"SANTO DOMINGO TEHUANTEPEC, OAX","count":10,"rate":176.8157},{"long":-100.8551,"lat":22.2716,"state_code":24,"mun_code":35,"date":"2016-10-01","name":"SOLEDAD DE GRACIANO SANCHEZ, SLP","count":28,"rate":106.1737},{"long":-99.9141,"lat":18.3583,"state_code":12,"mun_code":58,"date":"2016-10-01","name":"TELOLOAPAN, GRO","count":6,"rate":125.6219},{"long":-100.9815,"lat":21.8518,"state_code":24,"mun_code":50,"date":"2016-10-01","name":"VILLA DE REYES, SLP","count":8,"rate":180.3876}],"ext":[{"long":-99.0432,"lat":19.5728,"state_code":15,"mun_code":33,"date":"2016-10-01","name":"ECATEPEC DE MORELOS, MEX","count":28,"rate":18.207}]}
