{"hom":[{"long":-95.6897,"lat":18.433,"state_code":30,"mun_code":12,"date":"2017-11-01","name":"AMATITLAN, VER","count":8,"rate":1236.7946},{"long":-102.4233,"lat":18.9382,"state_code":16,"mun_code":6,"date":"2017-11-01","name":"APATZINGAN, MICH","count":17,"rate":155.7383},{"long":-87.0469,"lat":21.0124,"state_code":23,"mun_code":5,"date":"2017-11-01","name":"BENITO JUAREZ, QROO","count":25,"rate":35.9002},{"long":-98.8332,"lat":22.5718,"state_code":28,"mun_code":21,"date":"2017-11-01","name":"EL MANTE, TAM","count":5,"rate":48.1788},{"long":-114.9585,"lat":30.0362,"state_code":2,"mun_code":1,"date":"2017-11-01","name":"ENSENADA, BC","count":10,"rate":22.2841},{"long":-102.9959,"lat":23.2368,"state_code":32,"mun_code":10,"date":"2017-11-01","name":"FRESNILLO, ZAC","count":22,"rate":115.0808},{"long":-110.6259,"lat":28.1426,"state_code":26,"mun_code":29,"date":"2017-11-01","name":"GUAYMAS, SON","count":12,"rate":84.9002},{"long":-101.3683,"lat":20.6998,"state_code":11,"mun_code":17,"date":"2017-11-01","name":"IRAPUATO, GTO","count":8,"rate":16.6019},{"long":-110.6633,"lat":24.1905,"state_code":3,"mun_code":3,"date":"2017-11-01","name":"LA PAZ, BCS","count":48,"rate":186.5986},{"long":-101.6224,"lat":21.1247,"state_code":11,"mun_code":20,"date":"2017-11-01","name":"LEON, GTO","count":33,"rate":25.4087},{"long":-109.7533,"lat":23.2766,"state_code":3,"mun_code":8,"date":"2017-11-01","name":"LOS CABOS, BCS","count":39,"rate":140.6394},{"long":-97.051,"lat":20.1335,"state_code":30,"mun_code":102,"date":"2017-11-01","name":"MARTINEZ DE LA TORRE, VER","count":5,"rate":56.1992},{"long":-96.8854,"lat":19.9626,"state_code":30,"mun_code":109,"date":"2017-11-01","name":"MISANTLA, VER","count":5,"rate":90.7016},{"long":-98.1755,"lat":19.0086,"state_code":21,"mun_code":114,"date":"2017-11-01","name":"PUEBLA, PUE","count":22,"rate":15.8379},{"long":-98.3734,"lat":25.8102,"state_code":28,"mun_code":32,"date":"2017-11-01","name":"REYNOSA, TAM","count":30,"rate":51.0257},{"long":-101.1651,"lat":20.6251,"state_code":11,"mun_code":27,"date":"2017-11-01","name":"SALAMANCA, GTO","count":14,"rate":59.867},{"long":-103.3478,"lat":20.5914,"state_code":14,"mun_code":98,"date":"2017-11-01","name":"SAN PEDRO TLAQUEPAQUE, JAL","count":19,"rate":34.0092},{"long":-99.1682,"lat":19.7622,"state_code":15,"mun_code":91,"date":"2017-11-01","name":"TEOLOYUCAN, MEX","count":7,"rate":131.895},{"long":-104.8405,"lat":21.6216,"state_code":18,"mun_code":17,"date":"2017-11-01","name":"TEPIC, NAY","count":30,"rate":80.2082},{"long":-103.2143,"lat":20.6201,"state_code":14,"mun_code":101,"date":"2017-11-01","name":"TONALA, JAL","count":15,"rate":32.7161},{"long":-104.9618,"lat":21.3909,"state_code":18,"mun_code":8,"date":"2017-11-01","name":"XALISCO, NAY","count":6,"rate":123.5585},{"long":-101.4342,"lat":17.8201,"state_code":12,"mun_code":38,"date":"2017-11-01","name":"ZIHUATANEJO DE AZUETA, GRO","count":9,"rate":82.0594}],"rvcv":[{"long":-101.536,"lat":20.5332,"state_code":11,"mun_code":1,"date":"2017-11-01","name":"ABASOLO, GTO","count":7,"rate":93.9293},{"long":-97.9398,"lat":19.1033,"state_code":21,"mun_code":1,"date":"2017-11-01","name":"ACAJETE, PUE","count":12,"rate":213.0556},{"long":-97.765,"lat":19.0261,"state_code":21,"mun_code":4,"date":"2017-11-01","name":"ACATZINGO, PUE","count":12,"rate":246.5247},{"long":-95.0326,"lat":18.0367,"state_code":30,"mun_code":3,"date":"2017-11-01","name":"ACAYUCAN, VER","count":16,"rate":214.866},{"long":-98.0531,"lat":19.0473,"state_code":21,"mun_code":15,"date":"2017-11-01","name":"AMOZOC, PUE","count":15,"rate":147.5374},{"long":-102.5839,"lat":19.2039,"state_code":16,"mun_code":12,"date":"2017-11-01","name":"BUENAVISTA, MICH","count":11,"rate":291.3393},{"long":-109.8868,"lat":27.7928,"state_code":26,"mun_code":18,"date":"2017-11-01","name":"CAJEME, SON","count":19,"rate":49.4413},{"long":-97.4297,"lat":18.9773,"state_code":21,"mun_code":45,"date":"2017-11-01","name":"CHALCHICOMULA DE SESMA, PUE","count":9,"rate":225.0141},{"long":-96.9385,"lat":18.9324,"state_code":30,"mun_code":44,"date":"2017-11-01","name":"CORDOBA, VER","count":31,"rate":177.6827},{"long":-98.2917,"lat":19.1352,"state_code":21,"mun_code":34,"date":"2017-11-01","name":"CORONANGO, PUE","count":7,"rate":212.6905},{"long":-100.059,"lat":17.1425,"state_code":12,"mun_code":21,"date":"2017-11-01","name":"COYUCA DE BENITEZ, GRO","count":7,"rate":108.7801},{"long":-98.2561,"lat":19.1167,"state_code":21,"mun_code":41,"date":"2017-11-01","name":"CUAUTLANCINGO, PUE","count":12,"rate":142.3431},{"long":-96.9901,"lat":18.9022,"state_code":30,"mun_code":68,"date":"2017-11-01","name":"FORTIN, VER","count":6,"rate":109.8515},{"long":-97.6675,"lat":19.0207,"state_code":21,"mun_code":65,"date":"2017-11-01","name":"GENERAL FELIPE ANGELES, PUE","count":5,"rate":288.2675},{"long":-99.0889,"lat":19.7387,"state_code":15,"mun_code":44,"date":"2017-11-01","name":"JALTENCO, MEX","count":6,"rate":249.0746},{"long":-97.2657,"lat":18.8365,"state_code":30,"mun_code":99,"date":"2017-11-01","name":"MALTRATA, VER","count":5,"rate":321.1991},{"long":-115.1641,"lat":31.739,"state_code":2,"mun_code":2,"date":"2017-11-01","name":"MEXICALI, BC","count":8,"rate":9.0723},{"long":-99.3917,"lat":19.625,"state_code":15,"mun_code":60,"date":"2017-11-01","name":"NICOLAS ROMERO, MEX","count":32,"rate":86.6381},{"long":-102.2123,"lat":19.0621,"state_code":16,"mun_code":64,"date":"2017-11-01","name":"PARACUARO, MICH","count":9,"rate":399.1131},{"long":-98.1755,"lat":19.0086,"state_code":21,"mun_code":114,"date":"2017-11-01","name":"PUEBLA, PUE","count":99,"rate":71.2707},{"long":-98.3734,"lat":25.8102,"state_code":28,"mun_code":32,"date":"2017-11-01","name":"REYNOSA, TAM","count":284,"rate":483.0432},{"long":-98.0378,"lat":25.7444,"state_code":28,"mun_code":33,"date":"2017-11-01","name":"RIO BRAVO, TAM","count":15,"rate":136.3729},{"long":-98.2932,"lat":19.0236,"state_code":21,"mun_code":119,"date":"2017-11-01","name":"SAN ANDRES CHOLULA, PUE","count":14,"rate":139.2862},{"long":-98.4285,"lat":19.269,"state_code":21,"mun_code":132,"date":"2017-11-01","name":"SAN MARTIN TEXMELUCAN, PUE","count":13,"rate":99.9929},{"long":-97.7312,"lat":18.8593,"state_code":21,"mun_code":154,"date":"2017-11-01","name":"TECAMACHALCO, PUE","count":16,"rate":238.6694},{"long":-99.1701,"lat":19.5427,"state_code":15,"mun_code":104,"date":"2017-11-01","name":"TLALNEPANTLA DE BAZ, MEX","count":354,"rate":593.5829},{"long":-99.0718,"lat":19.8091,"state_code":15,"mun_code":120,"date":"2017-11-01","name":"ZUMPANGO, MEX","count":34,"rate":207.8324}],"rvsv":[{"long":-99.8295,"lat":19.4056,"state_code":15,"mun_code":5,"date":"2017-11-01","name":"ALMOLOYA DE JUAREZ, MEX","count":21,"rate":143.6757},{"long":-98.1347,"lat":19.821,"state_code":21,"mun_code":53,"date":"2017-11-01","name":"CHIGNAHUAPAN, PUE","count":6,"rate":111.1145},{"long":-108.679,"lat":26.2553,"state_code":25,"mun_code":10,"date":"2017-11-01","name":"EL FUERTE, SIN","count":7,"rate":79.5462},{"long":-102.1915,"lat":21.5557,"state_code":14,"mun_code":35,"date":"2017-11-01","name":"ENCARNACION DE DIAZ, JAL","count":6,"rate":127.5375},{"long":-97.3801,"lat":19.3164,"state_code":21,"mun_code":67,"date":"2017-11-01","name":"GUADALUPE VICTORIA, PUE","count":8,"rate":529.1005},{"long":-93.0839,"lat":18.2133,"state_code":27,"mun_code":10,"date":"2017-11-01","name":"JALPA DE MENDEZ, TAB","count":21,"rate":276.3976},{"long":-96.309,"lat":19.31,"state_code":30,"mun_code":16,"date":"2017-11-01","name":"LA ANTIGUA, VER","count":8,"rate":366.2305},{"long":-115.1641,"lat":31.739,"state_code":2,"mun_code":2,"date":"2017-11-01","name":"MEXICALI, BC","count":203,"rate":230.2094},{"long":-102.3017,"lat":22.1045,"state_code":1,"mun_code":6,"date":"2017-11-01","name":"PABELLON DE ARTEAGA, AGS","count":9,"rate":234.8898},{"long":-98.2932,"lat":19.0236,"state_code":21,"mun_code":119,"date":"2017-11-01","name":"SAN ANDRES CHOLULA, PUE","count":24,"rate":238.7763},{"long":-98.4285,"lat":19.269,"state_code":21,"mun_code":132,"date":"2017-11-01","name":"SAN MARTIN TEXMELUCAN, PUE","count":32,"rate":246.1365},{"long":-92.9524,"lat":17.6233,"state_code":27,"mun_code":16,"date":"2017-11-01","name":"TEAPA, TAB","count":10,"rate":209.0519},{"long":-102.1764,"lat":23.6048,"state_code":32,"mun_code":51,"date":"2017-11-01","name":"VILLA DE COS, ZAC","count":5,"rate":161.0911}],"lesions":[{"long":-102.7049,"lat":21.9007,"state_code":1,"mun_code":3,"date":"2017-11-01","name":"CALVILLO, AGS","count":6,"rate":121.6874},{"long":-103.1879,"lat":20.2599,"state_code":14,"mun_code":30,"date":"2017-11-01","name":"CHAPALA, JAL","count":14,"rate":311.336},{"long":-102.1678,"lat":20.4479,"state_code":14,"mun_code":33,"date":"2017-11-01","name":"DEGOLLADO, JAL","count":5,"rate":255.7},{"long":-98.6435,"lat":20.0316,"state_code":13,"mun_code":22,"date":"2017-11-01","name":"EPAZOYUCAN, HGO","count":8,"rate":613.693},{"long":-97.8585,"lat":17.5822,"state_code":20,"mun_code":549,"date":"2017-11-01","name":"HEROICA VILLA TEZOATLAN DE SEGURA Y LUNA, CUNA DE LA INDEPENDENCIA DE OAXACA, OAX","count":5,"rate":518.9414},{"long":-101.3683,"lat":20.6998,"state_code":11,"mun_code":17,"date":"2017-11-01","name":"IRAPUATO, GTO","count":85,"rate":176.3952},{"long":-97.029,"lat":18.8506,"state_code":30,"mun_code":85,"date":"2017-11-01","name":"IXTACZOQUITLAN, VER","count":17,"rate":289.3248},{"long":-99.2046,"lat":19.4281,"state_code":9,"mun_code":16,"date":"2017-11-01","name":"MIGUEL HIDALGO, CDMX","count":38,"rate":120.6155},{"long":-98.7764,"lat":20.8644,"state_code":13,"mun_code":42,"date":"2017-11-01","name":"MOLANGO DE ESCAMILLA, HGO","count":5,"rate":509.4244},{"long":-94.3914,"lat":18.0628,"state_code":30,"mun_code":206,"date":"2017-11-01","name":"NANCHITAL DE LAZARO CARDENAS DEL RIO, VER","count":7,"rate":295.4937},{"long":-101.599,"lat":19.4945,"state_code":16,"mun_code":66,"date":"2017-11-01","name":"PATZCUARO, MICH","count":20,"rate":254.0812},{"long":-101.5951,"lat":20.8258,"state_code":11,"mun_code":26,"date":"2017-11-01","name":"ROMITA, GTO","count":14,"rate":275.5906},{"long":-96.3021,"lat":16.7809,"state_code":20,"mun_code":131,"date":"2017-11-01","name":"SAN DIONISIO OCOTEPEC, OAX","count":5,"rate":515.1099},{"long":-97.0358,"lat":17.3905,"state_code":20,"mun_code":161,"date":"2017-11-01","name":"SAN JERONIMO SOSOLA, OAX","count":5,"rate":2488.5939},{"long":-97.2164,"lat":16.9811,"state_code":20,"mun_code":274,"date":"2017-11-01","name":"SAN MIGUEL PIEDRAS, OAX","count":10,"rate":9661.8357},{"long":-96.7486,"lat":17.019,"state_code":20,"mun_code":385,"date":"2017-11-01","name":"SANTA CRUZ XOXOCOTLAN, OAX","count":15,"rate":202.7895},{"long":-97.3953,"lat":17.1375,"state_code":20,"mun_code":430,"date":"2017-11-01","name":"SANTA MARIA TATALTEPEC, OAX","count":8,"rate":44444.4444},{"long":-101.1575,"lat":19.8164,"state_code":16,"mun_code":88,"date":"2017-11-01","name":"TARIMBARO, MICH","count":25,"rate":296.7741},{"long":-97.5349,"lat":16.3097,"state_code":20,"mun_code":543,"date":"2017-11-01","name":"TATALTEPEC DE VALDES, OAX","count":7,"rate":1438.1099},{"long":-97.5385,"lat":17.7486,"state_code":20,"mun_code":547,"date":"2017-11-01","name":"TEOTONGO, OAX","count":5,"rate":6451.6129},{"long":-97.3521,"lat":19.1336,"state_code":21,"mun_code":179,"date":"2017-11-01","name":"TLACHICHUCA, PUE","count":5,"rate":193.1123},{"long":-97.4755,"lat":17.872,"state_code":20,"mun_code":552,"date":"2017-11-01","name":"TLACOTEPEC PLUMAS, OAX","count":9,"rate":21218.0747}],"kidnapping":[{"long":-99.7143,"lat":16.9572,"state_code":12,"mun_code":1,"date":"2017-11-01","name":"ACAPULCO DE JUAREZ, GRO","count":5,"rate":7.0142},{"long":-99.6664,"lat":19.2971,"state_code":15,"mun_code":106,"date":"2017-11-01","name":"TOLUCA, MEX","count":6,"rate":7.5961}],"ext":[{"long":-99.0718,"lat":19.8091,"state_code":15,"mun_code":120,"date":"2017-11-01","name":"ZUMPANGO, MEX","count":6,"rate":36.6763}]}
