{"hom":[{"long":-103.9984,"lat":19.0092,"state_code":6,"mun_code":1,"date":"2017-08-01","name":"ARMERIA, COL","count":5,"rate":177.2475},{"long":-87.0469,"lat":21.0124,"state_code":23,"mun_code":5,"date":"2017-08-01","name":"BENITO JUAREZ, QROO","count":25,"rate":34.972},{"long":-99.1124,"lat":17.5237,"state_code":12,"mun_code":28,"date":"2017-08-01","name":"CHILAPA DE ALVAREZ, GRO","count":11,"rate":97.1761},{"long":-114.9585,"lat":30.0362,"state_code":2,"mun_code":1,"date":"2017-08-01","name":"ENSENADA, BC","count":16,"rate":34.6255},{"long":-110.6259,"lat":28.1426,"state_code":26,"mun_code":29,"date":"2017-08-01","name":"GUAYMAS, SON","count":10,"rate":68.678},{"long":-107.5581,"lat":28.3851,"state_code":8,"mun_code":31,"date":"2017-08-01","name":"GUERRERO, CHIH","count":6,"rate":158.8632},{"long":-99.2534,"lat":18.2298,"state_code":12,"mun_code":34,"date":"2017-08-01","name":"HUITZUCO DE LOS FIGUEROA, GRO","count":5,"rate":149.0018},{"long":-101.6224,"lat":21.1247,"state_code":11,"mun_code":20,"date":"2017-08-01","name":"LEON, GTO","count":24,"rate":17.918},{"long":-104.3027,"lat":19.1495,"state_code":6,"mun_code":7,"date":"2017-08-01","name":"MANZANILLO, COL","count":12,"rate":73.8648},{"long":-100.4527,"lat":20.7288,"state_code":22,"mun_code":14,"date":"2017-08-01","name":"QUERETARO, QRO","count":14,"rate":18.3142},{"long":-97.4451,"lat":18.4613,"state_code":21,"mun_code":156,"date":"2017-08-01","name":"TEHUACAN, PUE","count":7,"rate":27.0227},{"long":-104.8405,"lat":21.6216,"state_code":18,"mun_code":17,"date":"2017-08-01","name":"TEPIC, NAY","count":19,"rate":49.379},{"long":-103.2143,"lat":20.6201,"state_code":14,"mun_code":101,"date":"2017-08-01","name":"TONALA, JAL","count":18,"rate":38.1193},{"long":-96.8883,"lat":19.5439,"state_code":30,"mun_code":87,"date":"2017-08-01","name":"XALAPA, VER","count":13,"rate":30.0239},{"long":-101.2255,"lat":20.1832,"state_code":11,"mun_code":46,"date":"2017-08-01","name":"YURIRIA, GTO","count":9,"rate":138.152}],"rvcv":[{"long":-99.1479,"lat":19.9845,"state_code":15,"mun_code":10,"date":"2017-08-01","name":"APAXCO, MEX","count":6,"rate":223.3251},{"long":-98.4523,"lat":18.8991,"state_code":21,"mun_code":19,"date":"2017-08-01","name":"ATLIXCO, PUE","count":6,"rate":50.923},{"long":-100.7879,"lat":20.5376,"state_code":11,"mun_code":7,"date":"2017-08-01","name":"CELAYA, GTO","count":40,"rate":91.4915},{"long":-97.4297,"lat":18.9773,"state_code":21,"mun_code":45,"date":"2017-08-01","name":"CHALCHICOMULA DE SESMA, PUE","count":7,"rate":169.7367},{"long":-92.9706,"lat":16.5981,"state_code":7,"mun_code":27,"date":"2017-08-01","name":"CHIAPA DE CORZO, CHPS","count":8,"rate":90.8767},{"long":-99.6974,"lat":17.3908,"state_code":12,"mun_code":29,"date":"2017-08-01","name":"CHILPANCINGO DE LOS BRAVO, GRO","count":60,"rate":259.75},{"long":-96.9385,"lat":18.9324,"state_code":30,"mun_code":44,"date":"2017-08-01","name":"CORDOBA, VER","count":20,"rate":111.1203},{"long":-99.1809,"lat":18.8137,"state_code":17,"mun_code":8,"date":"2017-08-01","name":"EMILIANO ZAPATA, MOR","count":6,"rate":71.6949},{"long":-96.9901,"lat":18.9022,"state_code":30,"mun_code":68,"date":"2017-08-01","name":"FORTIN, VER","count":6,"rate":106.5176},{"long":-103.3358,"lat":20.676,"state_code":14,"mun_code":39,"date":"2017-08-01","name":"GUADALAJARA, JAL","count":215,"rate":163.9136},{"long":-92.897,"lat":16.818,"state_code":7,"mun_code":44,"date":"2017-08-01","name":"IXTAPA, CHPS","count":7,"rate":291.7396},{"long":-97.2657,"lat":18.8365,"state_code":30,"mun_code":99,"date":"2017-08-01","name":"MALTRATA, VER","count":10,"rate":623.2439},{"long":-94.3887,"lat":17.7114,"state_code":30,"mun_code":108,"date":"2017-08-01","name":"MINATITLAN, VER","count":15,"rate":104.8027},{"long":-99.3917,"lat":19.625,"state_code":15,"mun_code":60,"date":"2017-08-01","name":"NICOLAS ROMERO, MEX","count":18,"rate":47.3504},{"long":-111.0024,"lat":31.1988,"state_code":26,"mun_code":43,"date":"2017-08-01","name":"NOGALES, SON","count":10,"rate":45.8566},{"long":-97.199,"lat":18.8254,"state_code":30,"mun_code":115,"date":"2017-08-01","name":"NOGALES, VER","count":9,"rate":280.4597},{"long":-91.3375,"lat":16.7021,"state_code":7,"mun_code":59,"date":"2017-08-01","name":"OCOSINGO, CHPS","count":10,"rate":51.4873},{"long":-98.3528,"lat":16.6616,"state_code":12,"mun_code":46,"date":"2017-08-01","name":"OMETEPEC, GRO","count":5,"rate":88.0806},{"long":-98.7822,"lat":20.1021,"state_code":13,"mun_code":48,"date":"2017-08-01","name":"PACHUCA DE SOTO, HGO","count":30,"rate":126.5335},{"long":-97.5356,"lat":18.835,"state_code":21,"mun_code":110,"date":"2017-08-01","name":"PALMAR DE BRAVO, PUE","count":30,"rate":739.4085},{"long":-100.1724,"lat":20.472,"state_code":22,"mun_code":12,"date":"2017-08-01","name":"PEDRO ESCOBEDO, QRO","count":6,"rate":97.2252},{"long":-100.4527,"lat":20.7288,"state_code":22,"mun_code":14,"date":"2017-08-01","name":"QUERETARO, QRO","count":14,"rate":18.3142},{"long":-101.1651,"lat":20.6251,"state_code":11,"mun_code":27,"date":"2017-08-01","name":"SALAMANCA, GTO","count":20,"rate":82.8895},{"long":-98.2932,"lat":19.0236,"state_code":21,"mun_code":119,"date":"2017-08-01","name":"SAN ANDRES CHOLULA, PUE","count":14,"rate":135.2281},{"long":-97.7286,"lat":19.2547,"state_code":21,"mun_code":128,"date":"2017-08-01","name":"SAN JOSE CHIAPA, PUE","count":5,"rate":655.2078},{"long":-100.0004,"lat":20.3689,"state_code":22,"mun_code":16,"date":"2017-08-01","name":"SAN JUAN DEL RIO, QRO","count":11,"rate":46.512},{"long":-98.3431,"lat":19.073,"state_code":21,"mun_code":140,"date":"2017-08-01","name":"SAN PEDRO CHOLULA, PUE","count":6,"rate":52.9826},{"long":-97.9682,"lat":18.887,"state_code":21,"mun_code":153,"date":"2017-08-01","name":"TECALI DE HERRERA, PUE","count":5,"rate":257.5608},{"long":-97.7312,"lat":18.8593,"state_code":21,"mun_code":154,"date":"2017-08-01","name":"TECAMACHALCO, PUE","count":19,"rate":275.0741},{"long":-98.9865,"lat":19.7058,"state_code":15,"mun_code":81,"date":"2017-08-01","name":"TECAMAC, MEX","count":147,"rate":367.1128},{"long":-97.4451,"lat":18.4613,"state_code":21,"mun_code":156,"date":"2017-08-01","name":"TEHUACAN, PUE","count":38,"rate":146.6948},{"long":-97.6289,"lat":18.6557,"state_code":21,"mun_code":177,"date":"2017-08-01","name":"TLACOTEPEC DE BENITO JUAREZ, PUE","count":25,"rate":549.7493},{"long":-99.1701,"lat":19.5427,"state_code":15,"mun_code":104,"date":"2017-08-01","name":"TLALNEPANTLA DE BAZ, MEX","count":359,"rate":583.8253},{"long":-99.6664,"lat":19.2971,"state_code":15,"mun_code":106,"date":"2017-08-01","name":"TOLUCA, MEX","count":79,"rate":97.1318},{"long":-97.4118,"lat":20.9348,"state_code":30,"mun_code":189,"date":"2017-08-01","name":"TUXPAN, VER","count":6,"rate":45.6437},{"long":-93.1373,"lat":16.7394,"state_code":7,"mun_code":101,"date":"2017-08-01","name":"TUXTLA GUTIERREZ, CHPS","count":27,"rate":49.7775},{"long":-102.4698,"lat":20.2662,"state_code":16,"mun_code":105,"date":"2017-08-01","name":"VISTA HERMOSA, MICH","count":5,"rate":291.6056},{"long":-99.0718,"lat":19.8091,"state_code":15,"mun_code":120,"date":"2017-08-01","name":"ZUMPANGO, MEX","count":42,"rate":249.5048}],"rvsv":[{"long":-97.9398,"lat":19.1033,"state_code":21,"mun_code":1,"date":"2017-08-01","name":"ACAJETE, PUE","count":14,"rate":241.2176},{"long":-98.8897,"lat":20.3145,"state_code":13,"mun_code":3,"date":"2017-08-01","name":"ACTOPAN, HGO","count":16,"rate":311.5363},{"long":-99.8333,"lat":20.1157,"state_code":15,"mun_code":3,"date":"2017-08-01","name":"ACULCO, MEX","count":5,"rate":112.8759},{"long":-99.1479,"lat":19.9845,"state_code":15,"mun_code":10,"date":"2017-08-01","name":"APAXCO, MEX","count":6,"rate":223.3251},{"long":-98.1347,"lat":19.821,"state_code":21,"mun_code":53,"date":"2017-08-01","name":"CHIGNAHUAPAN, PUE","count":7,"rate":125.7663},{"long":-99.263,"lat":18.9389,"state_code":17,"mun_code":7,"date":"2017-08-01","name":"CUERNAVACA, MOR","count":44,"rate":129.629},{"long":-100.2786,"lat":20.7202,"state_code":22,"mun_code":11,"date":"2017-08-01","name":"EL MARQUES, QRO","count":18,"rate":139.5791},{"long":-97.9364,"lat":19.3324,"state_code":29,"mun_code":13,"date":"2017-08-01","name":"HUAMANTLA, TLAX","count":26,"rate":315.2912},{"long":-99.6807,"lat":20.3838,"state_code":13,"mun_code":29,"date":"2017-08-01","name":"HUICHAPAN, HGO","count":9,"rate":216.8429},{"long":-97.029,"lat":18.8506,"state_code":30,"mun_code":85,"date":"2017-08-01","name":"IXTACZOQUITLAN, VER","count":7,"rate":115.5152},{"long":-103.2074,"lat":20.3916,"state_code":14,"mun_code":44,"date":"2017-08-01","name":"IXTLAHUACAN DE LOS MEMBRILLOS, JAL","count":6,"rate":123.2836},{"long":-97.1839,"lat":18.933,"state_code":30,"mun_code":101,"date":"2017-08-01","name":"MARIANO ESCOBEDO, VER","count":5,"rate":156.7913},{"long":-93.4923,"lat":16.8279,"state_code":7,"mun_code":61,"date":"2017-08-01","name":"OCOZOCOAUTLA DE ESPINOSA, CHPS","count":5,"rate":62.437},{"long":-98.7822,"lat":20.1021,"state_code":13,"mun_code":48,"date":"2017-08-01","name":"PACHUCA DE SOTO, HGO","count":128,"rate":539.8761},{"long":-100.1724,"lat":20.472,"state_code":22,"mun_code":12,"date":"2017-08-01","name":"PEDRO ESCOBEDO, QRO","count":12,"rate":194.4504},{"long":-99.9771,"lat":25.7368,"state_code":19,"mun_code":41,"date":"2017-08-01","name":"PESQUERIA, NL","count":7,"rate":275.6913},{"long":-102.3407,"lat":22.2674,"state_code":1,"mun_code":7,"date":"2017-08-01","name":"RINCON DE ROMOS, AGS","count":7,"rate":150.5209},{"long":-98.3431,"lat":19.073,"state_code":21,"mun_code":140,"date":"2017-08-01","name":"SAN PEDRO CHOLULA, PUE","count":10,"rate":88.3043},{"long":-100.2131,"lat":18.8738,"state_code":15,"mun_code":82,"date":"2017-08-01","name":"TEJUPILCO, MEX","count":5,"rate":70.7422},{"long":-104.8405,"lat":21.6216,"state_code":18,"mun_code":17,"date":"2017-08-01","name":"TEPIC, NAY","count":17,"rate":44.1812},{"long":-98.0764,"lat":19.4822,"state_code":29,"mun_code":31,"date":"2017-08-01","name":"TETLA DE LA SOLIDARIDAD, TLAX","count":5,"rate":173.6639},{"long":-99.4322,"lat":19.1623,"state_code":15,"mun_code":101,"date":"2017-08-01","name":"TIANGUISTENCO, MEX","count":14,"rate":200.1682},{"long":-99.231,"lat":20.0962,"state_code":13,"mun_code":74,"date":"2017-08-01","name":"TLAXCOAPAN, HGO","count":20,"rate":804.1898},{"long":-98.3509,"lat":20.1236,"state_code":13,"mun_code":77,"date":"2017-08-01","name":"TULANCINGO DE BRAVO, HGO","count":67,"rate":456.1716},{"long":-93.3752,"lat":16.3461,"state_code":7,"mun_code":108,"date":"2017-08-01","name":"VILLAFLORES, CHPS","count":9,"rate":96.6552},{"long":-98.1777,"lat":19.4017,"state_code":29,"mun_code":43,"date":"2017-08-01","name":"YAUHQUEMEHCAN, TLAX","count":8,"rate":238.2867}],"lesions":[{"long":-102.2958,"lat":21.8114,"state_code":1,"mun_code":1,"date":"2017-08-01","name":"AGUASCALIENTES, AGS","count":297,"rate":388.1833},{"long":-101.0218,"lat":19.8735,"state_code":16,"mun_code":3,"date":"2017-08-01","name":"ALVARO OBREGON, MICH","count":5,"rate":259.0894},{"long":-100.0254,"lat":27.3422,"state_code":19,"mun_code":5,"date":"2017-08-01","name":"ANAHUAC, NL","count":6,"rate":355.1347},{"long":-102.0456,"lat":22.1265,"state_code":1,"mun_code":2,"date":"2017-08-01","name":"ASIENTOS, AGS","count":5,"rate":114.5415},{"long":-97.7692,"lat":21.1874,"state_code":30,"mun_code":34,"date":"2017-08-01","name":"CERRO AZUL, VER","count":12,"rate":520.4857},{"long":-103.9208,"lat":19.1881,"state_code":6,"mun_code":4,"date":"2017-08-01","name":"COQUIMATLAN, COL","count":6,"rate":317.712},{"long":-98.8826,"lat":20.2171,"state_code":13,"mun_code":9,"date":"2017-08-01","name":"EL ARENAL, HGO","count":8,"rate":481.8632},{"long":-100.3568,"lat":25.9007,"state_code":19,"mun_code":10,"date":"2017-08-01","name":"EL CARMEN, NL","count":14,"rate":714.7344},{"long":-97.029,"lat":18.8506,"state_code":30,"mun_code":85,"date":"2017-08-01","name":"IXTACZOQUITLAN, VER","count":9,"rate":148.5195},{"long":-102.4456,"lat":21.9321,"state_code":1,"mun_code":5,"date":"2017-08-01","name":"JESUS MARIA, AGS","count":28,"rate":282.0426},{"long":-100.4182,"lat":27.0508,"state_code":19,"mun_code":32,"date":"2017-08-01","name":"LAMPAZOS DE NARANJO, NL","count":6,"rate":1124.192},{"long":-102.0723,"lat":20.3056,"state_code":16,"mun_code":69,"date":"2017-08-01","name":"LA PIEDAD, MICH","count":21,"rate":228.5576},{"long":-98.7384,"lat":19.656,"state_code":15,"mun_code":65,"date":"2017-08-01","name":"OTUMBA, MEX","count":15,"rate":434.7231},{"long":-100.1724,"lat":20.472,"state_code":22,"mun_code":12,"date":"2017-08-01","name":"PEDRO ESCOBEDO, QRO","count":19,"rate":307.8798},{"long":-100.8468,"lat":19.7265,"state_code":16,"mun_code":72,"date":"2017-08-01","name":"QUERENDARO, MICH","count":5,"rate":406.1024},{"long":-97.1509,"lat":18.8445,"state_code":30,"mun_code":138,"date":"2017-08-01","name":"RIO BLANCO, VER","count":16,"rate":442.818},{"long":-100.3886,"lat":21.0023,"state_code":11,"mun_code":32,"date":"2017-08-01","name":"SAN JOSE ITURBIDE, GTO","count":18,"rate":256.4687},{"long":-96.6851,"lat":17.0486,"state_code":20,"mun_code":375,"date":"2017-08-01","name":"SANTA CRUZ AMILPAS, OAX","count":5,"rate":505.3483},{"long":-96.2233,"lat":15.7962,"state_code":20,"mun_code":413,"date":"2017-08-01","name":"SANTA MARIA HUATULCO, OAX","count":6,"rate":158.7655},{"long":-98.1214,"lat":16.2924,"state_code":20,"mun_code":482,"date":"2017-08-01","name":"SANTIAGO PINOTEPA NACIONAL, OAX","count":6,"rate":125.3597},{"long":-99.9526,"lat":20.5512,"state_code":22,"mun_code":17,"date":"2017-08-01","name":"TEQUISQUIAPAN, QRO","count":16,"rate":259.5606},{"long":-103.0711,"lat":20.1196,"state_code":14,"mun_code":96,"date":"2017-08-01","name":"TIZAPAN EL ALTO, JAL","count":5,"rate":256.7295},{"long":-98.6482,"lat":21.0318,"state_code":13,"mun_code":73,"date":"2017-08-01","name":"TLANCHINOL, HGO","count":7,"rate":211.1382},{"long":-92.4116,"lat":15.1404,"state_code":7,"mun_code":103,"date":"2017-08-01","name":"TUZANTAN, CHPS","count":5,"rate":181.0443},{"long":-96.7666,"lat":16.9497,"state_code":20,"mun_code":565,"date":"2017-08-01","name":"VILLA DE ZAACHILA, OAX","count":6,"rate":177.9619}],"ext":[{"long":-98.9865,"lat":19.7058,"state_code":15,"mun_code":81,"date":"2017-08-01","name":"TECAMAC, MEX","count":8,"rate":19.9789}]}
