{"hom":[{"long":-95.0326,"lat":18.0367,"state_code":30,"mun_code":3,"date":"2017-06-01","name":"ACAYUCAN, VER","count":11,"rate":148.1631},{"long":-102.2958,"lat":21.8114,"state_code":1,"mun_code":1,"date":"2017-06-01","name":"AGUASCALIENTES, AGS","count":9,"rate":12.1794},{"long":-100.5735,"lat":20.4218,"state_code":11,"mun_code":4,"date":"2017-06-01","name":"APASEO EL ALTO, GTO","count":7,"rate":121.6175},{"long":-100.6217,"lat":20.5755,"state_code":11,"mun_code":5,"date":"2017-06-01","name":"APASEO EL GRANDE, GTO","count":5,"rate":64.3101},{"long":-87.0469,"lat":21.0124,"state_code":23,"mun_code":5,"date":"2017-06-01","name":"BENITO JUAREZ, QROO","count":25,"rate":36.2979},{"long":-99.9142,"lat":25.5246,"state_code":19,"mun_code":9,"date":"2017-06-01","name":"CADEREYTA JIMENEZ, NL","count":8,"rate":96.6543},{"long":-99.1124,"lat":17.5237,"state_code":12,"mun_code":28,"date":"2017-06-01","name":"CHILAPA DE ALVAREZ, GRO","count":23,"rate":210.2008},{"long":-94.3974,"lat":18.1326,"state_code":30,"mun_code":39,"date":"2017-06-01","name":"COATZACOALCOS, VER","count":15,"rate":54.1412},{"long":-94.5681,"lat":18.0162,"state_code":30,"mun_code":48,"date":"2017-06-01","name":"COSOLEACAQUE, VER","count":10,"rate":91.9068},{"long":-106.9487,"lat":28.7235,"state_code":8,"mun_code":17,"date":"2017-06-01","name":"CUAUHTEMOC, CHIH","count":12,"rate":80.0471},{"long":-107.2667,"lat":24.6515,"state_code":25,"mun_code":6,"date":"2017-06-01","name":"CULIACAN, SIN","count":62,"rate":77.6932},{"long":-93.9572,"lat":17.5358,"state_code":30,"mun_code":61,"date":"2017-06-01","name":"LAS CHOAPAS, VER","count":6,"rate":85.9784},{"long":-108.3293,"lat":29.3269,"state_code":8,"mun_code":40,"date":"2017-06-01","name":"MADERA, CHIH","count":8,"rate":315.696},{"long":-104.3027,"lat":19.1495,"state_code":6,"mun_code":7,"date":"2017-06-01","name":"MANZANILLO, COL","count":26,"rate":165.8454},{"long":-99.2046,"lat":19.4281,"state_code":9,"mun_code":16,"date":"2017-06-01","name":"MIGUEL HIDALGO, CDMX","count":6,"rate":19.0191},{"long":-94.3887,"lat":17.7114,"state_code":30,"mun_code":108,"date":"2017-06-01","name":"MINATITLAN, VER","count":7,"rate":50.5875},{"long":-101.599,"lat":19.4945,"state_code":16,"mun_code":66,"date":"2017-06-01","name":"PATZCUARO, MICH","count":6,"rate":76.438},{"long":-98.3734,"lat":25.8102,"state_code":28,"mun_code":32,"date":"2017-06-01","name":"REYNOSA, TAM","count":29,"rate":49.6062},{"long":-100.8551,"lat":22.2716,"state_code":24,"mun_code":35,"date":"2017-06-01","name":"SOLEDAD DE GRACIANO SANCHEZ, SLP","count":9,"rate":34.9593},{"long":-92.2271,"lat":14.6394,"state_code":7,"mun_code":87,"date":"2017-06-01","name":"SUCHIATE, CHPS","count":6,"rate":187.7738},{"long":-104.8405,"lat":21.6216,"state_code":18,"mun_code":17,"date":"2017-06-01","name":"TEPIC, NAY","count":12,"rate":32.3224},{"long":-116.82,"lat":32.4041,"state_code":2,"mun_code":4,"date":"2017-06-01","name":"TIJUANA, BC","count":136,"rate":92.0185},{"long":-99.2062,"lat":19.1983,"state_code":9,"mun_code":12,"date":"2017-06-01","name":"TLALPAN, CDMX","count":12,"rate":21.5623},{"long":-96.8883,"lat":19.5439,"state_code":30,"mun_code":87,"date":"2017-06-01","name":"XALAPA, VER","count":12,"rate":28.6766}],"rvcv":[{"long":-95.0326,"lat":18.0367,"state_code":30,"mun_code":3,"date":"2017-06-01","name":"ACAYUCAN, VER","count":14,"rate":188.5712},{"long":-98.8897,"lat":20.3145,"state_code":13,"mun_code":3,"date":"2017-06-01","name":"ACTOPAN, HGO","count":5,"rate":100.7811},{"long":-97.4297,"lat":18.9773,"state_code":21,"mun_code":45,"date":"2017-06-01","name":"CHALCHICOMULA DE SESMA, PUE","count":5,"rate":125.4653},{"long":-99.6974,"lat":17.3908,"state_code":12,"mun_code":29,"date":"2017-06-01","name":"CHILPANCINGO DE LOS BRAVO, GRO","count":32,"rate":143.3371},{"long":-94.5681,"lat":18.0162,"state_code":30,"mun_code":48,"date":"2017-06-01","name":"COSOLEACAQUE, VER","count":22,"rate":202.195},{"long":-107.2667,"lat":24.6515,"state_code":25,"mun_code":6,"date":"2017-06-01","name":"CULIACAN, SIN","count":258,"rate":323.3039},{"long":-103.2455,"lat":20.539,"state_code":14,"mun_code":70,"date":"2017-06-01","name":"EL SALTO, JAL","count":11,"rate":81.3459},{"long":-114.9585,"lat":30.0362,"state_code":2,"mun_code":1,"date":"2017-06-01","name":"ENSENADA, BC","count":5,"rate":11.2074},{"long":-97.3646,"lat":18.859,"state_code":21,"mun_code":63,"date":"2017-06-01","name":"ESPERANZA, PUE","count":13,"rate":1064.8464},{"long":-99.5966,"lat":20.0191,"state_code":15,"mun_code":45,"date":"2017-06-01","name":"JILOTEPEC, MEX","count":5,"rate":60.4656},{"long":-94.3887,"lat":17.7114,"state_code":30,"mun_code":108,"date":"2017-06-01","name":"MINATITLAN, VER","count":24,"rate":173.4428},{"long":-107.7646,"lat":24.7233,"state_code":25,"mun_code":18,"date":"2017-06-01","name":"NAVOLATO, SIN","count":55,"rate":461.2643},{"long":-98.7822,"lat":20.1021,"state_code":13,"mun_code":48,"date":"2017-06-01","name":"PACHUCA DE SOTO, HGO","count":29,"rate":126.5606},{"long":-97.5356,"lat":18.835,"state_code":21,"mun_code":110,"date":"2017-06-01","name":"PALMAR DE BRAVO, PUE","count":15,"rate":382.7181},{"long":-116.8907,"lat":32.2529,"state_code":2,"mun_code":5,"date":"2017-06-01","name":"PLAYAS DE ROSARITO, BC","count":6,"rate":66.0945},{"long":-97.6345,"lat":18.9482,"state_code":21,"mun_code":115,"date":"2017-06-01","name":"QUECHOLAC, PUE","count":6,"rate":137.9628},{"long":-98.3734,"lat":25.8102,"state_code":28,"mun_code":32,"date":"2017-06-01","name":"REYNOSA, TAM","count":158,"rate":270.2683},{"long":-98.4285,"lat":19.269,"state_code":21,"mun_code":132,"date":"2017-06-01","name":"SAN MARTIN TEXMELUCAN, PUE","count":9,"rate":69.5003},{"long":-100.8551,"lat":22.2716,"state_code":24,"mun_code":35,"date":"2017-06-01","name":"SOLEDAD DE GRACIANO SANCHEZ, SLP","count":8,"rate":31.0749},{"long":-98.9865,"lat":19.7058,"state_code":15,"mun_code":81,"date":"2017-06-01","name":"TECAMAC, MEX","count":128,"rate":331.333},{"long":-93.5332,"lat":17.1983,"state_code":7,"mun_code":92,"date":"2017-06-01","name":"TECPATAN, CHPS","count":7,"rate":185.2383},{"long":-97.4451,"lat":18.4613,"state_code":21,"mun_code":156,"date":"2017-06-01","name":"TEHUACAN, PUE","count":28,"rate":111.8822},{"long":-97.6289,"lat":18.6557,"state_code":21,"mun_code":177,"date":"2017-06-01","name":"TLACOTEPEC DE BENITO JUAREZ, PUE","count":14,"rate":318.707},{"long":-99.1701,"lat":19.5427,"state_code":15,"mun_code":104,"date":"2017-06-01","name":"TLALNEPANTLA DE BAZ, MEX","count":334,"rate":562.0956},{"long":-103.2143,"lat":20.6201,"state_code":14,"mun_code":101,"date":"2017-06-01","name":"TONALA, JAL","count":41,"rate":89.9212},{"long":-98.3509,"lat":20.1236,"state_code":13,"mun_code":77,"date":"2017-06-01","name":"TULANCINGO DE BRAVO, HGO","count":21,"rate":148.0515},{"long":-93.1373,"lat":16.7394,"state_code":7,"mun_code":101,"date":"2017-06-01","name":"TUXTLA GUTIERREZ, CHPS","count":26,"rate":49.6258},{"long":-103.4942,"lat":20.7949,"state_code":14,"mun_code":120,"date":"2017-06-01","name":"ZAPOPAN, JAL","count":88,"rate":77.0072}],"rvsv":[{"long":-98.5894,"lat":19.561,"state_code":29,"mun_code":6,"date":"2017-06-01","name":"CALPULALPAN, TLAX","count":23,"rate":547.4996},{"long":-97.1634,"lat":18.7904,"state_code":30,"mun_code":30,"date":"2017-06-01","name":"CAMERINO Z. MENDOZA, VER","count":11,"rate":297.1701},{"long":-92.8602,"lat":18.0091,"state_code":27,"mun_code":4,"date":"2017-06-01","name":"CENTRO, TAB","count":271,"rate":460.7511},{"long":-103.8245,"lat":20.3904,"state_code":14,"mun_code":24,"date":"2017-06-01","name":"COCULA, JAL","count":16,"rate":693.6667},{"long":-99.2252,"lat":19.6545,"state_code":15,"mun_code":121,"date":"2017-06-01","name":"CUAUTITLAN IZCALLI, MEX","count":60,"rate":126.3845},{"long":-93.2207,"lat":18.0766,"state_code":27,"mun_code":6,"date":"2017-06-01","name":"CUNDUACAN, TAB","count":44,"rate":386.0947},{"long":-91.6758,"lat":17.7051,"state_code":27,"mun_code":7,"date":"2017-06-01","name":"EMILIANO ZAPATA, TAB","count":5,"rate":189.37},{"long":-99.2013,"lat":20.5325,"state_code":13,"mun_code":30,"date":"2017-06-01","name":"IXMIQUILPAN, HGO","count":19,"rate":234.1944},{"long":-93.0839,"lat":18.2133,"state_code":27,"mun_code":10,"date":"2017-06-01","name":"JALPA DE MENDEZ, TAB","count":18,"rate":237.875},{"long":-92.9486,"lat":18.1879,"state_code":27,"mun_code":13,"date":"2017-06-01","name":"NACAJUCA, TAB","count":27,"rate":235.4857},{"long":-98.1755,"lat":19.0086,"state_code":21,"mun_code":114,"date":"2017-06-01","name":"PUEBLA, PUE","count":278,"rate":200.7828},{"long":-91.2936,"lat":17.4264,"state_code":27,"mun_code":17,"date":"2017-06-01","name":"TENOSIQUE, TAB","count":6,"rate":116.7713},{"long":-103.781,"lat":21.1125,"state_code":14,"mun_code":94,"date":"2017-06-01","name":"TEQUILA, JAL","count":5,"rate":137.6368},{"long":-116.82,"lat":32.4041,"state_code":2,"mun_code":4,"date":"2017-06-01","name":"TIJUANA, BC","count":742,"rate":502.0419},{"long":-99.231,"lat":20.0962,"state_code":13,"mun_code":74,"date":"2017-06-01","name":"TLAXCOAPAN, HGO","count":9,"rate":374.6098},{"long":-99.3767,"lat":20.0641,"state_code":13,"mun_code":76,"date":"2017-06-01","name":"TULA DE ALLENDE, HGO","count":19,"rate":200.6689},{"long":-98.3509,"lat":20.1236,"state_code":13,"mun_code":77,"date":"2017-06-01","name":"TULANCINGO DE BRAVO, HGO","count":66,"rate":465.3048}],"lesions":[{"long":-101.536,"lat":20.5332,"state_code":11,"mun_code":1,"date":"2017-06-01","name":"ABASOLO, GTO","count":7,"rate":94.1609},{"long":-102.2958,"lat":21.8114,"state_code":1,"mun_code":1,"date":"2017-06-01","name":"AGUASCALIENTES, AGS","count":260,"rate":351.8502},{"long":-100.6217,"lat":20.5755,"state_code":11,"mun_code":5,"date":"2017-06-01","name":"APASEO EL GRANDE, GTO","count":16,"rate":205.7922},{"long":-99.846,"lat":19.81,"state_code":15,"mun_code":14,"date":"2017-06-01","name":"ATLACOMULCO, MEX","count":55,"rate":584.2259},{"long":-102.7049,"lat":21.9007,"state_code":1,"mun_code":3,"date":"2017-06-01","name":"CALVILLO, AGS","count":15,"rate":305.5872},{"long":-101.0133,"lat":19.6689,"state_code":16,"mun_code":22,"date":"2017-06-01","name":"CHARO, MICH","count":10,"rate":518.5601},{"long":-98.8776,"lat":19.4063,"state_code":15,"mun_code":29,"date":"2017-06-01","name":"CHICOLOAPAN, MEX","count":22,"rate":136.0495},{"long":-106.2325,"lat":29.0006,"state_code":8,"mun_code":19,"date":"2017-06-01","name":"CHIHUAHUA, CHIH","count":115,"rate":148.4056},{"long":-104.6149,"lat":19.2774,"state_code":14,"mun_code":22,"date":"2017-06-01","name":"CIHUATLAN, JAL","count":9,"rate":232.5682},{"long":-103.9208,"lat":19.1881,"state_code":6,"mun_code":4,"date":"2017-06-01","name":"COQUIMATLAN, COL","count":8,"rate":438.817},{"long":-102.0354,"lat":21.9215,"state_code":1,"mun_code":10,"date":"2017-06-01","name":"EL LLANO, AGS","count":9,"rate":520.4318},{"long":-100.6598,"lat":25.809,"state_code":19,"mun_code":18,"date":"2017-06-01","name":"GARCIA, NL","count":73,"rate":438.4692},{"long":-101.499,"lat":20.3674,"state_code":11,"mun_code":16,"date":"2017-06-01","name":"HUANIMARO, GTO","count":5,"rate":283.0723},{"long":-97.029,"lat":18.8506,"state_code":30,"mun_code":85,"date":"2017-06-01","name":"IXTACZOQUITLAN, VER","count":8,"rate":136.5965},{"long":-102.4456,"lat":21.9321,"state_code":1,"mun_code":5,"date":"2017-06-01","name":"JESUS MARIA, AGS","count":31,"rate":323.4614},{"long":-104.3027,"lat":19.1495,"state_code":6,"mun_code":7,"date":"2017-06-01","name":"MANZANILLO, COL","count":31,"rate":197.7388},{"long":-104.1313,"lat":26.146,"state_code":10,"mun_code":13,"date":"2017-06-01","name":"MAPIMI, DGO","count":6,"rate":261.3525},{"long":-105.5015,"lat":28.3506,"state_code":8,"mun_code":45,"date":"2017-06-01","name":"MEOQUI, CHIH","count":11,"rate":272.0359},{"long":-99.5883,"lat":19.2474,"state_code":15,"mun_code":54,"date":"2017-06-01","name":"METEPEC, MEX","count":77,"rate":385.077},{"long":-109.4027,"lat":27.0781,"state_code":26,"mun_code":42,"date":"2017-06-01","name":"NAVOJOA, SON","count":19,"rate":129.452},{"long":-101.7151,"lat":21.8108,"state_code":14,"mun_code":64,"date":"2017-06-01","name":"OJUELOS DE JALISCO, JAL","count":11,"rate":406.1788},{"long":-99.5273,"lat":19.4506,"state_code":15,"mun_code":67,"date":"2017-06-01","name":"OTZOLOTEPEC, MEX","count":26,"rate":339.6658},{"long":-102.3017,"lat":22.1045,"state_code":1,"mun_code":6,"date":"2017-06-01","name":"PABELLON DE ARTEAGA, AGS","count":9,"rate":236.1017},{"long":-98.7822,"lat":20.1021,"state_code":13,"mun_code":48,"date":"2017-06-01","name":"PACHUCA DE SOTO, HGO","count":89,"rate":388.4102},{"long":-104.354,"lat":24.4949,"state_code":10,"mun_code":20,"date":"2017-06-01","name":"PANUCO DE CORONADO, DGO","count":5,"rate":479.195},{"long":-100.8468,"lat":19.7265,"state_code":16,"mun_code":72,"date":"2017-06-01","name":"QUERENDARO, MICH","count":5,"rate":419.9622},{"long":-96.8191,"lat":17.2099,"state_code":20,"mun_code":77,"date":"2017-06-01","name":"REYES ETLA, OAX","count":6,"rate":1862.3901},{"long":-102.3407,"lat":22.2674,"state_code":1,"mun_code":7,"date":"2017-06-01","name":"RINCON DE ROMOS, AGS","count":15,"rate":333.9889},{"long":-102.229,"lat":22.0331,"state_code":1,"mun_code":11,"date":"2017-06-01","name":"SAN FRANCISCO DE LOS ROMO, AGS","count":14,"rate":401.2324},{"long":-96.9281,"lat":17.3721,"state_code":20,"mun_code":150,"date":"2017-06-01","name":"SAN FRANCISCO TELIXTLAHUACA, OAX","count":6,"rate":544.7942},{"long":-100.4762,"lat":21.3994,"state_code":11,"mun_code":33,"date":"2017-06-01","name":"SAN LUIS DE LA PAZ, GTO","count":16,"rate":152.7155},{"long":-96.2233,"lat":15.7962,"state_code":20,"mun_code":413,"date":"2017-06-01","name":"SANTA MARIA HUATULCO, OAX","count":9,"rate":246.5191},{"long":-101.4378,"lat":20.9631,"state_code":11,"mun_code":37,"date":"2017-06-01","name":"SILAO DE LA VICTORIA, GTO","count":56,"rate":352.8207},{"long":-100.8551,"lat":22.2716,"state_code":24,"mun_code":35,"date":"2017-06-01","name":"SOLEDAD DE GRACIANO SANCHEZ, SLP","count":59,"rate":229.1774},{"long":-103.8696,"lat":18.902,"state_code":6,"mun_code":9,"date":"2017-06-01","name":"TECOMAN, COL","count":18,"rate":167.0986},{"long":-98.931,"lat":19.5969,"state_code":15,"mun_code":100,"date":"2017-06-01","name":"TEZOYUCA, MEX","count":10,"rate":263.8871},{"long":-103.4174,"lat":20.4787,"state_code":14,"mun_code":97,"date":"2017-06-01","name":"TLAJOMULCO DE ZUÃ‘IGA, JAL","count":81,"rate":170.9212},{"long":-103.2489,"lat":25.1701,"state_code":5,"mun_code":35,"date":"2017-06-01","name":"TORREON, COAH","count":117,"rate":198.0938},{"long":-100.9925,"lat":20.542,"state_code":11,"mun_code":44,"date":"2017-06-01","name":"VILLAGRAN, GTO","count":14,"rate":279.3528}],"kidnapping":[{"long":-96.8883,"lat":19.5439,"state_code":30,"mun_code":87,"date":"2017-06-01","name":"XALAPA, VER","count":5,"rate":11.9486}],"ext":[{"long":-102.9959,"lat":23.2368,"state_code":32,"mun_code":10,"date":"2017-06-01","name":"FRESNILLO, ZAC","count":10,"rate":52.4804},{"long":-110.6633,"lat":24.1905,"state_code":3,"mun_code":3,"date":"2017-06-01","name":"LA PAZ, BCS","count":17,"rate":66.7856},{"long":-93.2006,"lat":18.3812,"state_code":27,"mun_code":14,"date":"2017-06-01","name":"PARAISO, TAB","count":5,"rate":64.5758}]}
