{"hom":[{"long":-102.5839,"lat":19.2039,"state_code":16,"mun_code":12,"date":"2017-03-01","name":"BUENAVISTA, MICH","count":7,"rate":180.1807},{"long":-92.8602,"lat":18.0091,"state_code":27,"mun_code":4,"date":"2017-03-01","name":"CENTRO, TAB","count":8,"rate":13.1955},{"long":-114.9585,"lat":30.0362,"state_code":2,"mun_code":1,"date":"2017-03-01","name":"ENSENADA, BC","count":16,"rate":34.8319},{"long":-100.3556,"lat":25.822,"state_code":19,"mun_code":21,"date":"2017-03-01","name":"GENERAL ESCOBEDO, NL","count":13,"rate":36.2082},{"long":-101.6224,"lat":21.1247,"state_code":11,"mun_code":20,"date":"2017-03-01","name":"LEON, GTO","count":31,"rate":23.2217},{"long":-109.7533,"lat":23.2766,"state_code":3,"mun_code":8,"date":"2017-03-01","name":"LOS CABOS, BCS","count":43,"rate":153.4163},{"long":-115.1641,"lat":31.739,"state_code":2,"mun_code":2,"date":"2017-03-01","name":"MEXICALI, BC","count":20,"rate":22.1344},{"long":-97.6854,"lat":21.3132,"state_code":30,"mun_code":13,"date":"2017-03-01","name":"NARANJOS AMATLAN, VER","count":7,"rate":282.3071},{"long":-107.7646,"lat":24.7233,"state_code":25,"mun_code":18,"date":"2017-03-01","name":"NAVOLATO, SIN","count":31,"rate":251.9914},{"long":-99.5974,"lat":18.52,"state_code":12,"mun_code":55,"date":"2017-03-01","name":"TAXCO DE ALARCON, GRO","count":7,"rate":74.4963},{"long":-103.2143,"lat":20.6201,"state_code":14,"mun_code":101,"date":"2017-03-01","name":"TONALA, JAL","count":9,"rate":19.1682},{"long":-103.8444,"lat":19.3096,"state_code":6,"mun_code":10,"date":"2017-03-01","name":"VILLA DE ALVAREZ, COL","count":5,"rate":40.8344}],"rvcv":[{"long":-95.0326,"lat":18.0367,"state_code":30,"mun_code":3,"date":"2017-03-01","name":"ACAYUCAN, VER","count":7,"rate":91.4104},{"long":-100.6217,"lat":20.5755,"state_code":11,"mun_code":5,"date":"2017-03-01","name":"APASEO EL GRANDE, GTO","count":7,"rate":87.3207},{"long":-97.4281,"lat":18.7332,"state_code":21,"mun_code":99,"date":"2017-03-01","name":"CAÑADA MORELOS, PUE","count":11,"rate":631.0113},{"long":-100.7879,"lat":20.5376,"state_code":11,"mun_code":7,"date":"2017-03-01","name":"CELAYA, GTO","count":20,"rate":45.8893},{"long":-94.3974,"lat":18.1326,"state_code":30,"mun_code":39,"date":"2017-03-01","name":"COATZACOALCOS, VER","count":36,"rate":126.0103},{"long":-97.3646,"lat":18.859,"state_code":21,"mun_code":63,"date":"2017-03-01","name":"ESPERANZA, PUE","count":5,"rate":397.1581},{"long":-103.3358,"lat":20.676,"state_code":14,"mun_code":39,"date":"2017-03-01","name":"GUADALAJARA, JAL","count":206,"rate":157.4185},{"long":-111.4735,"lat":29.0237,"state_code":26,"mun_code":30,"date":"2017-03-01","name":"HERMOSILLO, SON","count":17,"rate":22.1321},{"long":-99.0889,"lat":19.7387,"state_code":15,"mun_code":44,"date":"2017-03-01","name":"JALTENCO, MEX","count":6,"rate":242.8716},{"long":-95.3659,"lat":17.9815,"state_code":30,"mun_code":94,"date":"2017-03-01","name":"JUAN RODRIGUEZ CLARA, VER","count":9,"rate":264.1431},{"long":-102.0723,"lat":20.3056,"state_code":16,"mun_code":69,"date":"2017-03-01","name":"LA PIEDAD, MICH","count":8,"rate":87.2872},{"long":-97.6761,"lat":19.4692,"state_code":21,"mun_code":94,"date":"2017-03-01","name":"LIBRES, PUE","count":7,"rate":234.3539},{"long":-107.7646,"lat":24.7233,"state_code":25,"mun_code":18,"date":"2017-03-01","name":"NAVOLATO, SIN","count":20,"rate":162.5751},{"long":-97.5834,"lat":19.3265,"state_code":21,"mun_code":108,"date":"2017-03-01","name":"ORIENTAL, PUE","count":7,"rate":435.4761},{"long":-97.1048,"lat":18.8559,"state_code":30,"mun_code":118,"date":"2017-03-01","name":"ORIZABA, VER","count":11,"rate":101.6633},{"long":-98.2932,"lat":19.0236,"state_code":21,"mun_code":119,"date":"2017-03-01","name":"SAN ANDRES CHOLULA, PUE","count":5,"rate":48.5733},{"long":-98.4285,"lat":19.269,"state_code":21,"mun_code":132,"date":"2017-03-01","name":"SAN MARTIN TEXMELUCAN, PUE","count":10,"rate":74.9166},{"long":-103.3478,"lat":20.5914,"state_code":14,"mun_code":98,"date":"2017-03-01","name":"SAN PEDRO TLAQUEPAQUE, JAL","count":62,"rate":108.2127},{"long":-102.2487,"lat":19.8726,"state_code":16,"mun_code":85,"date":"2017-03-01","name":"TANGANCICUARO, MICH","count":5,"rate":168.9985},{"long":-101.8951,"lat":19.3293,"state_code":16,"mun_code":87,"date":"2017-03-01","name":"TARETAN, MICH","count":9,"rate":726.3613},{"long":-97.4451,"lat":18.4613,"state_code":21,"mun_code":156,"date":"2017-03-01","name":"TEHUACAN, PUE","count":14,"rate":54.276},{"long":-99.1682,"lat":19.7622,"state_code":15,"mun_code":91,"date":"2017-03-01","name":"TEOLOYUCAN, MEX","count":14,"rate":256.7198},{"long":-102.7208,"lat":20.8148,"state_code":14,"mun_code":93,"date":"2017-03-01","name":"TEPATITLAN DE MORELOS, JAL","count":5,"rate":39.1091},{"long":-116.82,"lat":32.4041,"state_code":2,"mun_code":4,"date":"2017-03-01","name":"TIJUANA, BC","count":124,"rate":81.4856},{"long":-97.6289,"lat":18.6557,"state_code":21,"mun_code":177,"date":"2017-03-01","name":"TLACOTEPEC DE BENITO JUAREZ, PUE","count":8,"rate":176.7263},{"long":-103.4174,"lat":20.4787,"state_code":14,"mun_code":97,"date":"2017-03-01","name":"TLAJOMULCO DE ZUÑIGA, JAL","count":35,"rate":71.8882},{"long":-99.1701,"lat":19.5427,"state_code":15,"mun_code":104,"date":"2017-03-01","name":"TLALNEPANTLA DE BAZ, MEX","count":288,"rate":470.0609},{"long":-99.231,"lat":20.0962,"state_code":13,"mun_code":74,"date":"2017-03-01","name":"TLAXCOAPAN, HGO","count":5,"rate":201.9284},{"long":-103.2143,"lat":20.6201,"state_code":14,"mun_code":101,"date":"2017-03-01","name":"TONALA, JAL","count":56,"rate":119.2688},{"long":-98.3509,"lat":20.1236,"state_code":13,"mun_code":77,"date":"2017-03-01","name":"TULANCINGO DE BRAVO, HGO","count":17,"rate":116.3583},{"long":-97.4118,"lat":20.9348,"state_code":30,"mun_code":189,"date":"2017-03-01","name":"TUXPAN, VER","count":7,"rate":53.3888},{"long":-103.4942,"lat":20.7949,"state_code":14,"mun_code":120,"date":"2017-03-01","name":"ZAPOPAN, JAL","count":94,"rate":79.8278},{"long":-99.0718,"lat":19.8091,"state_code":15,"mun_code":120,"date":"2017-03-01","name":"ZUMPANGO, MEX","count":26,"rate":155.5855}],"rvsv":[{"long":-98.0531,"lat":19.0473,"state_code":21,"mun_code":15,"date":"2017-03-01","name":"AMOZOC, PUE","count":26,"rate":249.9094},{"long":-93.3367,"lat":18.2869,"state_code":27,"mun_code":5,"date":"2017-03-01","name":"COMALCALCO, TAB","count":17,"rate":95.4233},{"long":-98.2561,"lat":19.1167,"state_code":21,"mun_code":41,"date":"2017-03-01","name":"CUAUTLANCINGO, PUE","count":5,"rate":58.0135},{"long":-100.6598,"lat":25.809,"state_code":19,"mun_code":18,"date":"2017-03-01","name":"GARCIA, NL","count":26,"rate":152.1484},{"long":-100.6779,"lat":19.6126,"state_code":16,"mun_code":34,"date":"2017-03-01","name":"HIDALGO, MICH","count":14,"rate":131.0743},{"long":-98.4517,"lat":21.1272,"state_code":13,"mun_code":28,"date":"2017-03-01","name":"HUEJUTLA DE REYES, HGO","count":8,"rate":71.9099},{"long":-93.0839,"lat":18.2133,"state_code":27,"mun_code":10,"date":"2017-03-01","name":"JALPA DE MENDEZ, TAB","count":13,"rate":166.6715},{"long":-98.3455,"lat":19.1193,"state_code":21,"mun_code":90,"date":"2017-03-01","name":"JUAN C. BONILLA, PUE","count":6,"rate":319.5772},{"long":-97.8239,"lat":18.9624,"state_code":21,"mun_code":118,"date":"2017-03-01","name":"LOS REYES DE JUAREZ, PUE","count":7,"rate":295.6227},{"long":-92.4586,"lat":17.845,"state_code":27,"mun_code":12,"date":"2017-03-01","name":"MACUSPANA, TAB","count":34,"rate":243.6554},{"long":-99.1807,"lat":20.2239,"state_code":13,"mun_code":41,"date":"2017-03-01","name":"MIXQUIAHUALA DE JUAREZ, HGO","count":22,"rate":543.0166},{"long":-92.9486,"lat":18.1879,"state_code":27,"mun_code":13,"date":"2017-03-01","name":"NACAJUCA, TAB","count":17,"rate":144.0292},{"long":-98.1755,"lat":19.0086,"state_code":21,"mun_code":114,"date":"2017-03-01","name":"PUEBLA, PUE","count":250,"rate":175.0897},{"long":-98.1404,"lat":19.1561,"state_code":29,"mun_code":25,"date":"2017-03-01","name":"SAN PABLO DEL MONTE, TLAX","count":17,"rate":253.9972},{"long":-100.4839,"lat":25.5746,"state_code":19,"mun_code":48,"date":"2017-03-01","name":"SANTA CATARINA, NL","count":22,"rate":87.5589},{"long":-87.3978,"lat":20.587,"state_code":23,"mun_code":8,"date":"2017-03-01","name":"SOLIDARIDAD, QROO","count":24,"rate":127.2542},{"long":-103.6822,"lat":20.6074,"state_code":14,"mun_code":83,"date":"2017-03-01","name":"TALA, JAL","count":12,"rate":174.2654},{"long":-97.4451,"lat":18.4613,"state_code":21,"mun_code":156,"date":"2017-03-01","name":"TEHUACAN, PUE","count":66,"rate":255.8728},{"long":-98.0036,"lat":19.1452,"state_code":21,"mun_code":163,"date":"2017-03-01","name":"TEPATLAXCO DE HIDALGO, PUE","count":9,"rate":586.4444},{"long":-97.8762,"lat":19.0119,"state_code":21,"mun_code":164,"date":"2017-03-01","name":"TEPEACA, PUE","count":26,"rate":363.4099},{"long":-116.82,"lat":32.4041,"state_code":2,"mun_code":4,"date":"2017-03-01","name":"TIJUANA, BC","count":926,"rate":608.5136},{"long":-102.7487,"lat":20.5487,"state_code":14,"mun_code":105,"date":"2017-03-01","name":"TOTOTLAN, JAL","count":5,"rate":243.1207},{"long":-101.2706,"lat":20.3783,"state_code":11,"mun_code":42,"date":"2017-03-01","name":"VALLE DE SANTIAGO, GTO","count":18,"rate":139.6127}],"lesions":[{"long":-104.0805,"lat":20.5417,"state_code":14,"mun_code":6,"date":"2017-03-01","name":"AMECA, JAL","count":9,"rate":170.7892},{"long":-100.6217,"lat":20.5755,"state_code":11,"mun_code":5,"date":"2017-03-01","name":"APASEO EL GRANDE, GTO","count":25,"rate":311.8596},{"long":-103.9984,"lat":19.0092,"state_code":6,"mun_code":1,"date":"2017-03-01","name":"ARMERIA, COL","count":5,"rate":178.3692},{"long":-98.6765,"lat":20.3548,"state_code":13,"mun_code":12,"date":"2017-03-01","name":"ATOTONILCO EL GRANDE, HGO","count":6,"rate":236.5716},{"long":-99.1611,"lat":19.3806,"state_code":9,"mun_code":14,"date":"2017-03-01","name":"BENITO JUAREZ, CDMX","count":39,"rate":114.5535},{"long":-95.0893,"lat":16.6234,"state_code":20,"mun_code":14,"date":"2017-03-01","name":"CIUDAD IXTEPEC, OAX","count":5,"rate":204.9071},{"long":-98.6003,"lat":19.6593,"state_code":13,"mun_code":21,"date":"2017-03-01","name":"EMILIANO ZAPATA, HGO","count":5,"rate":407.6419},{"long":-99.2366,"lat":19.0576,"state_code":17,"mun_code":9,"date":"2017-03-01","name":"HUITZILAC, MOR","count":5,"rate":294.8485},{"long":-99.2534,"lat":18.2298,"state_code":12,"mun_code":34,"date":"2017-03-01","name":"HUITZUCO DE LOS FIGUEROA, GRO","count":5,"rate":149.1473},{"long":-97.029,"lat":18.8506,"state_code":30,"mun_code":85,"date":"2017-03-01","name":"IXTACZOQUITLAN, VER","count":8,"rate":132.4559},{"long":-102.316,"lat":19.9349,"state_code":16,"mun_code":43,"date":"2017-03-01","name":"JACONA, MICH","count":11,"rate":190.2961},{"long":-104.3907,"lat":27.0821,"state_code":8,"mun_code":36,"date":"2017-03-01","name":"JIMENEZ, CHIH","count":12,"rate":311.8535},{"long":-103.4172,"lat":20.3145,"state_code":14,"mun_code":50,"date":"2017-03-01","name":"JOCOTEPEC, JAL","count":10,"rate":251.7484},{"long":-104.3027,"lat":19.1495,"state_code":6,"mun_code":7,"date":"2017-03-01","name":"MANZANILLO, COL","count":17,"rate":105.3977},{"long":-96.1619,"lat":18.9883,"state_code":30,"mun_code":105,"date":"2017-03-01","name":"MEDELLIN DE BRAVO, VER","count":6,"rate":90.9983},{"long":-98.8461,"lat":24.0226,"state_code":28,"mun_code":30,"date":"2017-03-01","name":"PADILLA, TAM","count":5,"rate":377.0423},{"long":-102.0711,"lat":19.6541,"state_code":16,"mun_code":65,"date":"2017-03-01","name":"PARACHO, MICH","count":9,"rate":281.5932},{"long":-102.2123,"lat":19.0621,"state_code":16,"mun_code":64,"date":"2017-03-01","name":"PARACUARO, MICH","count":5,"rate":215.4448},{"long":-101.599,"lat":19.4945,"state_code":16,"mun_code":66,"date":"2017-03-01","name":"PATZCUARO, MICH","count":25,"rate":308.7553},{"long":-98.3757,"lat":21.2948,"state_code":30,"mun_code":129,"date":"2017-03-01","name":"PLATON SANCHEZ, VER","count":8,"rate":513.5612},{"long":-102.8947,"lat":20.2702,"state_code":14,"mun_code":66,"date":"2017-03-01","name":"PONCITLAN, JAL","count":11,"rate":241.9905},{"long":-89.674,"lat":21.7922,"state_code":31,"mun_code":59,"date":"2017-03-01","name":"PROGRESO, YUC","count":12,"rate":232.5022},{"long":-101.6881,"lat":19.3812,"state_code":16,"mun_code":79,"date":"2017-03-01","name":"SALVADOR ESCALANTE, MICH","count":5,"rate":116.0316},{"long":-97.0253,"lat":20.3856,"state_code":30,"mun_code":158,"date":"2017-03-01","name":"TECOLUTLA, VER","count":8,"rate":356.7575},{"long":-98.8811,"lat":19.8191,"state_code":15,"mun_code":84,"date":"2017-03-01","name":"TEMASCALAPA, MEX","count":8,"rate":228.2635},{"long":-102.5545,"lat":21.4804,"state_code":14,"mun_code":91,"date":"2017-03-01","name":"TEOCALTICHE, JAL","count":9,"rate":241.1874},{"long":-97.8631,"lat":21.1487,"state_code":30,"mun_code":167,"date":"2017-03-01","name":"TEPETZINTLA, VER","count":5,"rate":405.8469},{"long":-99.9393,"lat":18.9396,"state_code":15,"mun_code":97,"date":"2017-03-01","name":"TEXCALTITLAN, MEX","count":7,"rate":412.9766},{"long":-99.1082,"lat":18.705,"state_code":17,"mun_code":24,"date":"2017-03-01","name":"TLALTIZAPAN DE ZAPATA, MOR","count":6,"rate":130.5995},{"long":-103.9511,"lat":23.7333,"state_code":10,"mun_code":38,"date":"2017-03-01","name":"VICENTE GUERRERO, DGO","count":6,"rate":309.0182},{"long":-103.8444,"lat":19.3096,"state_code":6,"mun_code":10,"date":"2017-03-01","name":"VILLA DE ALVAREZ, COL","count":14,"rate":114.3364},{"long":-97.0583,"lat":19.4478,"state_code":30,"mun_code":92,"date":"2017-03-01","name":"XICO, VER","count":5,"rate":153.7726},{"long":-102.2641,"lat":20.033,"state_code":16,"mun_code":108,"date":"2017-03-01","name":"ZAMORA, MICH","count":44,"rate":258.349},{"long":-97.0347,"lat":16.7802,"state_code":20,"mun_code":570,"date":"2017-03-01","name":"ZIMATLAN DE ALVAREZ, OAX","count":10,"rate":577.2968}],"ext":[{"long":-92.8602,"lat":18.0091,"state_code":27,"mun_code":4,"date":"2017-03-01","name":"CENTRO, TAB","count":19,"rate":31.3394},{"long":-110.6633,"lat":24.1905,"state_code":3,"mun_code":3,"date":"2017-03-01","name":"LA PAZ, BCS","count":7,"rate":26.7806}]}
