{"hom":[{"long":-103.9984,"lat":19.0092,"state_code":6,"mun_code":1,"date":"2016-08-01","name":"ARMERIA, COL","count":10,"rate":359.9338},{"long":-100.2116,"lat":22.0158,"state_code":24,"mun_code":11,"date":"2016-08-01","name":"CIUDAD FERNANDEZ, SLP","count":5,"rate":124.8511},{"long":-94.3974,"lat":18.1326,"state_code":30,"mun_code":39,"date":"2016-08-01","name":"COATZACOALCOS, VER","count":13,"rate":45.7269},{"long":-103.77,"lat":19.3934,"state_code":6,"mun_code":3,"date":"2016-08-01","name":"COMALA, COL","count":5,"rate":256.5367},{"long":-96.6595,"lat":18.7763,"state_code":30,"mun_code":53,"date":"2016-08-01","name":"CUITLAHUAC, VER","count":5,"rate":202.0619},{"long":-102.0723,"lat":20.3056,"state_code":16,"mun_code":69,"date":"2016-08-01","name":"LA PIEDAD, MICH","count":9,"rate":98.5518},{"long":-102.3751,"lat":18.0885,"state_code":16,"mun_code":52,"date":"2016-08-01","name":"LAZARO CARDENAS, MICH","count":17,"rate":103.0921},{"long":-94.3887,"lat":17.7114,"state_code":30,"mun_code":108,"date":"2016-08-01","name":"MINATITLAN, VER","count":6,"rate":42.1705},{"long":-97.2863,"lat":20.4109,"state_code":30,"mun_code":124,"date":"2016-08-01","name":"PAPANTLA, VER","count":11,"rate":77.5048},{"long":-97.4385,"lat":20.53,"state_code":30,"mun_code":131,"date":"2016-08-01","name":"POZA RICA DE HIDALGO, VER","count":11,"rate":62.4676},{"long":-99.8956,"lat":21.5761,"state_code":24,"mun_code":27,"date":"2016-08-01","name":"SAN CIRO DE ACOSTA, SLP","count":11,"rate":1218.9116},{"long":-97.5302,"lat":20.6604,"state_code":30,"mun_code":175,"date":"2016-08-01","name":"TIHUATLAN, VER","count":9,"rate":108.1746},{"long":-99.1701,"lat":19.5427,"state_code":15,"mun_code":104,"date":"2016-08-01","name":"TLALNEPANTLA DE BAZ, MEX","count":25,"rate":41.0109},{"long":-102.1056,"lat":19.4436,"state_code":16,"mun_code":102,"date":"2016-08-01","name":"URUAPAN, MICH","count":12,"rate":40.7585}],"rvcv":[{"long":-97.765,"lat":19.0261,"state_code":21,"mun_code":4,"date":"2016-08-01","name":"ACATZINGO, PUE","count":6,"rate":121.0813},{"long":-102.4233,"lat":18.9382,"state_code":16,"mun_code":6,"date":"2016-08-01","name":"APATZINGAN, MICH","count":35,"rate":312.7345},{"long":-109.8868,"lat":27.7928,"state_code":26,"mun_code":18,"date":"2016-08-01","name":"CAJEME, SON","count":10,"rate":25.5657},{"long":-98.8317,"lat":19.2536,"state_code":15,"mun_code":25,"date":"2016-08-01","name":"CHALCO, MEX","count":22,"rate":69.048},{"long":-99.0432,"lat":19.5728,"state_code":15,"mun_code":33,"date":"2016-08-01","name":"ECATEPEC DE MORELOS, MEX","count":312,"rate":203.2483},{"long":-99.5821,"lat":18.2268,"state_code":12,"mun_code":35,"date":"2016-08-01","name":"IGUALA DE LA INDEPENDENCIA, GRO","count":14,"rate":108.0256},{"long":-102.3751,"lat":18.0885,"state_code":16,"mun_code":52,"date":"2016-08-01","name":"LAZARO CARDENAS, MICH","count":28,"rate":169.7988},{"long":-100.1724,"lat":20.472,"state_code":22,"mun_code":12,"date":"2016-08-01","name":"PEDRO ESCOBEDO, QRO","count":6,"rate":98.6178},{"long":-116.8907,"lat":32.2529,"state_code":2,"mun_code":5,"date":"2016-08-01","name":"PLAYAS DE ROSARITO, BC","count":7,"rate":75.6879},{"long":-100.0004,"lat":20.3689,"state_code":22,"mun_code":16,"date":"2016-08-01","name":"SAN JUAN DEL RIO, QRO","count":7,"rate":30.0239},{"long":-98.4948,"lat":19.8155,"state_code":13,"mun_code":61,"date":"2016-08-01","name":"TEPEAPULCO, HGO","count":8,"rate":173.5633},{"long":-116.82,"lat":32.4041,"state_code":2,"mun_code":4,"date":"2016-08-01","name":"TIJUANA, BC","count":36,"rate":23.8579},{"long":-102.1056,"lat":19.4436,"state_code":16,"mun_code":102,"date":"2016-08-01","name":"URUAPAN, MICH","count":30,"rate":101.8962},{"long":-101.4342,"lat":17.8201,"state_code":12,"mun_code":38,"date":"2016-08-01","name":"ZIHUATANEJO DE AZUETA, GRO","count":28,"rate":249.5137}],"rvsv":[{"long":-101.7067,"lat":19.1563,"state_code":16,"mun_code":9,"date":"2016-08-01","name":"ARIO, MICH","count":5,"rate":157.6298},{"long":-102.7468,"lat":22.9569,"state_code":32,"mun_code":5,"date":"2016-08-01","name":"CALERA, ZAC","count":19,"rate":513.7137},{"long":-103.8245,"lat":20.3904,"state_code":14,"mun_code":24,"date":"2016-08-01","name":"COCULA, JAL","count":6,"rate":253.1423},{"long":-98.2917,"lat":19.1352,"state_code":21,"mun_code":34,"date":"2016-08-01","name":"CORONANGO, PUE","count":6,"rate":179.0595},{"long":-92.5582,"lat":15.3644,"state_code":7,"mun_code":32,"date":"2016-08-01","name":"ESCUINTLA, CHPS","count":6,"rate":212.5543},{"long":-97.9364,"lat":19.3324,"state_code":29,"mun_code":13,"date":"2016-08-01","name":"HUAMANTLA, TLAX","count":14,"rate":172.1414},{"long":-93.6998,"lat":17.8264,"state_code":27,"mun_code":8,"date":"2016-08-01","name":"HUIMANGUILLO, TAB","count":24,"rate":146.9817},{"long":-102.316,"lat":19.9349,"state_code":16,"mun_code":43,"date":"2016-08-01","name":"JACONA, MICH","count":9,"rate":156.2461},{"long":-93.0839,"lat":18.2133,"state_code":27,"mun_code":10,"date":"2016-08-01","name":"JALPA DE MENDEZ, TAB","count":12,"rate":154.7493},{"long":-101.8797,"lat":21.494,"state_code":14,"mun_code":53,"date":"2016-08-01","name":"LAGOS DE MORENO, JAL","count":37,"rate":254.4322},{"long":-92.9486,"lat":18.1879,"state_code":27,"mun_code":13,"date":"2016-08-01","name":"NACAJUCA, TAB","count":9,"rate":76.9299},{"long":-102.0711,"lat":19.6541,"state_code":16,"mun_code":65,"date":"2016-08-01","name":"PARACHO, MICH","count":5,"rate":157.0797},{"long":-98.2932,"lat":19.0236,"state_code":21,"mun_code":119,"date":"2016-08-01","name":"SAN ANDRES CHOLULA, PUE","count":11,"rate":107.7627},{"long":-102.229,"lat":22.0331,"state_code":1,"mun_code":11,"date":"2016-08-01","name":"SAN FRANCISCO DE LOS ROMO, AGS","count":11,"rate":309.2875},{"long":-98.1404,"lat":19.1561,"state_code":29,"mun_code":25,"date":"2016-08-01","name":"SAN PABLO DEL MONTE, TLAX","count":7,"rate":105.4842},{"long":-100.8551,"lat":22.2716,"state_code":24,"mun_code":35,"date":"2016-08-01","name":"SOLEDAD DE GRACIANO SANCHEZ, SLP","count":54,"rate":205.2126},{"long":-92.2271,"lat":14.6394,"state_code":7,"mun_code":87,"date":"2016-08-01","name":"SUCHIATE, CHPS","count":5,"rate":152.7893},{"long":-99.2722,"lat":18.8425,"state_code":17,"mun_code":18,"date":"2016-08-01","name":"TEMIXCO, MOR","count":15,"rate":147.1901},{"long":-98.0764,"lat":19.4822,"state_code":29,"mun_code":31,"date":"2016-08-01","name":"TETLA DE LA SOLIDARIDAD, TLAX","count":6,"rate":211.5925},{"long":-93.6905,"lat":15.997,"state_code":7,"mun_code":97,"date":"2016-08-01","name":"TONALA, CHPS","count":12,"rate":151.849}],"lesions":[{"long":-103.6088,"lat":20.4285,"state_code":14,"mun_code":2,"date":"2016-08-01","name":"ACATLAN DE JUAREZ, JAL","count":11,"rate":521.6299},{"long":-100.0295,"lat":25.3014,"state_code":19,"mun_code":4,"date":"2016-08-01","name":"ALLENDE, NL","count":7,"rate":227.4873},{"long":-102.5396,"lat":20.5476,"state_code":14,"mun_code":13,"date":"2016-08-01","name":"ATOTONILCO EL ALTO, JAL","count":5,"rate":91.8481},{"long":-109.8868,"lat":27.7928,"state_code":26,"mun_code":18,"date":"2016-08-01","name":"CAJEME, SON","count":21,"rate":53.6879},{"long":-100.3568,"lat":25.9007,"state_code":19,"mun_code":10,"date":"2016-08-01","name":"EL CARMEN, NL","count":8,"rate":419.5224},{"long":-99.2366,"lat":19.0576,"state_code":17,"mun_code":9,"date":"2016-08-01","name":"HUITZILAC, MOR","count":8,"rate":475.5002},{"long":-109.7533,"lat":23.2766,"state_code":3,"mun_code":8,"date":"2016-08-01","name":"LOS CABOS, BCS","count":49,"rate":178.3459},{"long":-113.2307,"lat":27.2861,"state_code":3,"mun_code":2,"date":"2016-08-01","name":"MULEGE, BCS","count":11,"rate":185.1332},{"long":-101.473,"lat":21.5796,"state_code":11,"mun_code":22,"date":"2016-08-01","name":"OCAMPO, GTO","count":8,"rate":388.6839},{"long":-95.2196,"lat":16.1934,"state_code":20,"mun_code":79,"date":"2016-08-01","name":"SALINA CRUZ, OAX","count":13,"rate":171.7846},{"long":-100.9609,"lat":22.2705,"state_code":24,"mun_code":28,"date":"2016-08-01","name":"SAN LUIS POTOSI, SLP","count":234,"rate":325.6598},{"long":-95.3998,"lat":18.3993,"state_code":30,"mun_code":143,"date":"2016-08-01","name":"SANTIAGO TUXTLA, VER","count":5,"rate":99.1014},{"long":-98.8278,"lat":19.4716,"state_code":15,"mun_code":99,"date":"2016-08-01","name":"TEXCOCO, MEX","count":41,"rate":176.1262}],"ext":[{"long":-99.1024,"lat":19.6263,"state_code":15,"mun_code":20,"date":"2016-08-01","name":"COACALCO DE BERRIOZABAL, MEX","count":7,"rate":27.2045},{"long":-92.3048,"lat":14.934,"state_code":7,"mun_code":89,"date":"2016-08-01","name":"TAPACHULA, CHPS","count":6,"rate":19.281}]}
