{"hom":[{"long":-98.0358,"lat":23.0023,"state_code":28,"mun_code":2,"date":"2017-10-01","name":"ALDAMA, TAM","count":5,"rate":180.235},{"long":-87.0469,"lat":21.0124,"state_code":23,"mun_code":5,"date":"2017-10-01","name":"BENITO JUAREZ, QROO","count":30,"rate":41.7822},{"long":-99.9142,"lat":25.5246,"state_code":19,"mun_code":9,"date":"2017-10-01","name":"CADEREYTA JIMENEZ, NL","count":19,"rate":221.1073},{"long":-94.3974,"lat":18.1326,"state_code":30,"mun_code":39,"date":"2017-10-01","name":"COATZACOALCOS, VER","count":12,"rate":41.8062},{"long":-97.5374,"lat":20.4275,"state_code":30,"mun_code":40,"date":"2017-10-01","name":"COATZINTLA, VER","count":18,"rate":394.2443},{"long":-110.6687,"lat":28.0085,"state_code":26,"mun_code":25,"date":"2017-10-01","name":"EMPALME, SON","count":6,"rate":116.2589},{"long":-114.9585,"lat":30.0362,"state_code":2,"mun_code":1,"date":"2017-10-01","name":"ENSENADA, BC","count":18,"rate":38.8628},{"long":-102.9959,"lat":23.2368,"state_code":32,"mun_code":10,"date":"2017-10-01","name":"FRESNILLO, ZAC","count":24,"rate":121.5719},{"long":-101.3683,"lat":20.6998,"state_code":11,"mun_code":17,"date":"2017-10-01","name":"IRAPUATO, GTO","count":16,"rate":32.1531},{"long":-110.6633,"lat":24.1905,"state_code":3,"mun_code":3,"date":"2017-10-01","name":"LA PAZ, BCS","count":48,"rate":180.958},{"long":-109.7533,"lat":23.2766,"state_code":3,"mun_code":8,"date":"2017-10-01","name":"LOS CABOS, BCS","count":47,"rate":164.4679},{"long":-92.4586,"lat":17.845,"state_code":27,"mun_code":12,"date":"2017-10-01","name":"MACUSPANA, TAB","count":7,"rate":49.9081},{"long":-96.8854,"lat":19.9626,"state_code":30,"mun_code":109,"date":"2017-10-01","name":"MISANTLA, VER","count":5,"rate":87.8169},{"long":-102.2123,"lat":19.0621,"state_code":16,"mun_code":64,"date":"2017-10-01","name":"PARACUARO, MICH","count":5,"rate":214.688},{"long":-98.3734,"lat":25.8102,"state_code":28,"mun_code":32,"date":"2017-10-01","name":"REYNOSA, TAM","count":32,"rate":52.7315},{"long":-95.2222,"lat":18.4672,"state_code":30,"mun_code":141,"date":"2017-10-01","name":"SAN ANDRES TUXTLA, VER","count":5,"rate":34.4973},{"long":-105.4871,"lat":21.568,"state_code":18,"mun_code":12,"date":"2017-10-01","name":"SAN BLAS, NAY","count":5,"rate":116.2243},{"long":-106.3702,"lat":23.9545,"state_code":25,"mun_code":16,"date":"2017-10-01","name":"SAN IGNACIO, SIN","count":6,"rate":302.1178},{"long":-100.4762,"lat":21.3994,"state_code":11,"mun_code":33,"date":"2017-10-01","name":"SAN LUIS DE LA PAZ, GTO","count":6,"rate":55.2491},{"long":-103.3478,"lat":20.5914,"state_code":14,"mun_code":98,"date":"2017-10-01","name":"SAN PEDRO TLAQUEPAQUE, JAL","count":25,"rate":43.3462},{"long":-116.269,"lat":32.4409,"state_code":2,"mun_code":3,"date":"2017-10-01","name":"TECATE, BC","count":7,"rate":70.942},{"long":-104.8405,"lat":21.6216,"state_code":18,"mun_code":17,"date":"2017-10-01","name":"TEPIC, NAY","count":28,"rate":72.5534},{"long":-116.82,"lat":32.4041,"state_code":2,"mun_code":4,"date":"2017-10-01","name":"TIJUANA, BC","count":160,"rate":104.2713},{"long":-101.4342,"lat":17.8201,"state_code":12,"mun_code":38,"date":"2017-10-01","name":"ZIHUATANEJO DE AZUETA, GRO","count":21,"rate":185.4095}],"rvcv":[{"long":-97.9398,"lat":19.1033,"state_code":21,"mun_code":1,"date":"2017-10-01","name":"ACAJETE, PUE","count":8,"rate":137.5835},{"long":-102.7611,"lat":18.7777,"state_code":16,"mun_code":2,"date":"2017-10-01","name":"AGUILILLA, MICH","count":5,"rate":357.5842},{"long":-97.5174,"lat":19.1026,"state_code":21,"mun_code":12,"date":"2017-10-01","name":"ALJOJUCA, PUE","count":5,"rate":863.0279},{"long":-99.8295,"lat":19.4056,"state_code":15,"mun_code":5,"date":"2017-10-01","name":"ALMOLOYA DE JUAREZ, MEX","count":8,"rate":53.0397},{"long":-100.6217,"lat":20.5755,"state_code":11,"mun_code":5,"date":"2017-10-01","name":"APASEO EL GRANDE, GTO","count":11,"rate":136.5392},{"long":-98.9616,"lat":19.5456,"state_code":15,"mun_code":11,"date":"2017-10-01","name":"ATENCO, MEX","count":7,"rate":114.6905},{"long":-109.8868,"lat":27.7928,"state_code":26,"mun_code":18,"date":"2017-10-01","name":"CAJEME, SON","count":12,"rate":30.2487},{"long":-97.1634,"lat":18.7904,"state_code":30,"mun_code":30,"date":"2017-10-01","name":"CAMERINO Z. MENDOZA, VER","count":10,"rate":260.8645},{"long":-97.4281,"lat":18.7332,"state_code":21,"mun_code":99,"date":"2017-10-01","name":"CAÑADA MORELOS, PUE","count":15,"rate":856.3667},{"long":-100.7879,"lat":20.5376,"state_code":11,"mun_code":7,"date":"2017-10-01","name":"CELAYA, GTO","count":29,"rate":66.2511},{"long":-97.4297,"lat":18.9773,"state_code":21,"mun_code":45,"date":"2017-10-01","name":"CHALCHICOMULA DE SESMA, PUE","count":8,"rate":193.7017},{"long":-97.5374,"lat":20.4275,"state_code":30,"mun_code":40,"date":"2017-10-01","name":"COATZINTLA, VER","count":19,"rate":416.1467},{"long":-99.2252,"lat":19.6545,"state_code":15,"mun_code":121,"date":"2017-10-01","name":"CUAUTITLAN IZCALLI, MEX","count":174,"rate":353.3467},{"long":-96.9901,"lat":18.9022,"state_code":30,"mun_code":68,"date":"2017-10-01","name":"FORTIN, VER","count":9,"rate":159.5666},{"long":-103.3358,"lat":20.676,"state_code":14,"mun_code":39,"date":"2017-10-01","name":"GUADALAJARA, JAL","count":216,"rate":164.5154},{"long":-96.9398,"lat":19.1368,"state_code":30,"mun_code":71,"date":"2017-10-01","name":"HUATUSCO, VER","count":5,"rate":96.9002},{"long":-98.4488,"lat":19.1671,"state_code":21,"mun_code":74,"date":"2017-10-01","name":"HUEJOTZINGO, PUE","count":5,"rate":84.1539},{"long":-99.0889,"lat":19.7387,"state_code":15,"mun_code":44,"date":"2017-10-01","name":"JALTENCO, MEX","count":9,"rate":361.898},{"long":-97.2657,"lat":18.8365,"state_code":30,"mun_code":99,"date":"2017-10-01","name":"MALTRATA, VER","count":12,"rate":746.6504},{"long":-99.2926,"lat":19.4713,"state_code":15,"mun_code":57,"date":"2017-10-01","name":"NAUCALPAN DE JUAREZ, MEX","count":247,"rate":311.7368},{"long":-101.8158,"lat":20.4016,"state_code":11,"mun_code":23,"date":"2017-10-01","name":"PENJAMO, GTO","count":10,"rate":73.1946},{"long":-116.8907,"lat":32.2529,"state_code":2,"mun_code":5,"date":"2017-10-01","name":"PLAYAS DE ROSARITO, BC","count":12,"rate":127.2438},{"long":-98.1755,"lat":19.0086,"state_code":21,"mun_code":114,"date":"2017-10-01","name":"PUEBLA, PUE","count":100,"rate":69.7134},{"long":-98.3734,"lat":25.8102,"state_code":28,"mun_code":32,"date":"2017-10-01","name":"REYNOSA, TAM","count":341,"rate":561.9197},{"long":-98.0378,"lat":25.7444,"state_code":28,"mun_code":33,"date":"2017-10-01","name":"RIO BRAVO, TAM","count":76,"rate":669.2808},{"long":-98.4285,"lat":19.269,"state_code":21,"mun_code":132,"date":"2017-10-01","name":"SAN MARTIN TEXMELUCAN, PUE","count":13,"rate":96.8437},{"long":-98.3431,"lat":19.073,"state_code":21,"mun_code":140,"date":"2017-10-01","name":"SAN PEDRO CHOLULA, PUE","count":7,"rate":61.7229},{"long":-99.5974,"lat":18.52,"state_code":12,"mun_code":55,"date":"2017-10-01","name":"TAXCO DE ALARCON, GRO","count":6,"rate":63.7161},{"long":-99.1682,"lat":19.7622,"state_code":15,"mun_code":91,"date":"2017-10-01","name":"TEOLOYUCAN, MEX","count":14,"rate":255.4693},{"long":-98.931,"lat":19.5969,"state_code":15,"mun_code":100,"date":"2017-10-01","name":"TEZOYUCA, MEX","count":8,"rate":202.9962},{"long":-116.82,"lat":32.4041,"state_code":2,"mun_code":4,"date":"2017-10-01","name":"TIJUANA, BC","count":107,"rate":69.7314},{"long":-98.5853,"lat":19.3623,"state_code":21,"mun_code":180,"date":"2017-10-01","name":"TLAHUAPAN, PUE","count":5,"rate":145.067},{"long":-99.1701,"lat":19.5427,"state_code":15,"mun_code":104,"date":"2017-10-01","name":"TLALNEPANTLA DE BAZ, MEX","count":360,"rate":584.5977},{"long":-99.0584,"lat":19.6818,"state_code":15,"mun_code":125,"date":"2017-10-01","name":"TONANITLA, MEX","count":6,"rate":553.0393},{"long":-99.0718,"lat":19.8091,"state_code":15,"mun_code":120,"date":"2017-10-01","name":"ZUMPANGO, MEX","count":43,"rate":254.7261}],"rvsv":[{"long":-99.8295,"lat":19.4056,"state_code":15,"mun_code":5,"date":"2017-10-01","name":"ALMOLOYA DE JUAREZ, MEX","count":30,"rate":198.8988},{"long":-98.447,"lat":19.7229,"state_code":13,"mun_code":8,"date":"2017-10-01","name":"APAN, HGO","count":5,"rate":126.9503},{"long":-102.5396,"lat":20.5476,"state_code":14,"mun_code":13,"date":"2017-10-01","name":"ATOTONILCO EL ALTO, JAL","count":5,"rate":90.6989},{"long":-98.1347,"lat":19.821,"state_code":21,"mun_code":53,"date":"2017-10-01","name":"CHIGNAHUAPAN, PUE","count":10,"rate":179.3665},{"long":-97.5374,"lat":20.4275,"state_code":30,"mun_code":40,"date":"2017-10-01","name":"COATZINTLA, VER","count":8,"rate":175.2197},{"long":-98.2917,"lat":19.1352,"state_code":21,"mun_code":34,"date":"2017-10-01","name":"CORONANGO, PUE","count":7,"rate":206.0278},{"long":-98.2561,"lat":19.1167,"state_code":21,"mun_code":41,"date":"2017-10-01","name":"CUAUTLANCINGO, PUE","count":10,"rate":114.9383},{"long":-108.679,"lat":26.2553,"state_code":25,"mun_code":10,"date":"2017-10-01","name":"EL FUERTE, SIN","count":7,"rate":77.021},{"long":-97.3801,"lat":19.3164,"state_code":21,"mun_code":67,"date":"2017-10-01","name":"GUADALUPE VICTORIA, PUE","count":5,"rate":320.2676},{"long":-98.4488,"lat":19.1671,"state_code":21,"mun_code":74,"date":"2017-10-01","name":"HUEJOTZINGO, PUE","count":12,"rate":201.9694},{"long":-99.6807,"lat":20.3838,"state_code":13,"mun_code":29,"date":"2017-10-01","name":"HUICHAPAN, HGO","count":10,"rate":240.5374},{"long":-97.029,"lat":18.8506,"state_code":30,"mun_code":85,"date":"2017-10-01","name":"IXTACZOQUITLAN, VER","count":5,"rate":82.4043},{"long":-96.309,"lat":19.31,"state_code":30,"mun_code":16,"date":"2017-10-01","name":"LA ANTIGUA, VER","count":8,"rate":354.5383},{"long":-94.991,"lat":17.1556,"state_code":20,"mun_code":57,"date":"2017-10-01","name":"MATIAS ROMERO AVENDAÑO, OAX","count":5,"rate":150.2899},{"long":-115.1641,"lat":31.739,"state_code":2,"mun_code":2,"date":"2017-10-01","name":"MEXICALI, BC","count":245,"rate":269.1567},{"long":-99.0674,"lat":26.2386,"state_code":28,"mun_code":25,"date":"2017-10-01","name":"MIGUEL ALEMAN, TAM","count":6,"rate":225.7343},{"long":-107.7646,"lat":24.7233,"state_code":25,"mun_code":18,"date":"2017-10-01","name":"NAVOLATO, SIN","count":10,"rate":80.9843},{"long":-93.4923,"lat":16.8279,"state_code":7,"mun_code":61,"date":"2017-10-01","name":"OCOZOCOAUTLA DE ESPINOSA, CHPS","count":6,"rate":74.77},{"long":-98.2932,"lat":19.0236,"state_code":21,"mun_code":119,"date":"2017-10-01","name":"SAN ANDRES CHOLULA, PUE","count":14,"rate":134.9374},{"long":-98.4285,"lat":19.269,"state_code":21,"mun_code":132,"date":"2017-10-01","name":"SAN MARTIN TEXMELUCAN, PUE","count":33,"rate":245.8341},{"long":-102.3796,"lat":20.9926,"state_code":14,"mun_code":78,"date":"2017-10-01","name":"SAN MIGUEL EL ALTO, JAL","count":5,"rate":163.4469},{"long":-98.3431,"lat":19.073,"state_code":21,"mun_code":140,"date":"2017-10-01","name":"SAN PEDRO CHOLULA, PUE","count":12,"rate":105.8107},{"long":-99.3635,"lat":19.9027,"state_code":13,"mun_code":63,"date":"2017-10-01","name":"TEPEJI DEL RIO DE OCAMPO, HGO","count":9,"rate":115.9114},{"long":-98.3509,"lat":20.1236,"state_code":13,"mun_code":77,"date":"2017-10-01","name":"TULANCINGO DE BRAVO, HGO","count":61,"rate":414.4626}],"lesions":[{"long":-97.2764,"lat":18.7161,"state_code":30,"mun_code":6,"date":"2017-10-01","name":"ACULTZINGO, VER","count":6,"rate":304.5342},{"long":-103.9984,"lat":19.0092,"state_code":6,"mun_code":1,"date":"2017-10-01","name":"ARMERIA, COL","count":8,"rate":282.8879},{"long":-102.7049,"lat":21.9007,"state_code":1,"mun_code":3,"date":"2017-10-01","name":"CALVILLO, AGS","count":18,"rate":353.6027},{"long":-98.8591,"lat":26.1836,"state_code":28,"mun_code":7,"date":"2017-10-01","name":"CAMARGO, TAM","count":6,"rate":485.2188},{"long":-90.2676,"lat":19.617,"state_code":4,"mun_code":2,"date":"2017-10-01","name":"CAMPECHE, CAMP","count":11,"rate":43.1453},{"long":-97.7692,"lat":21.1874,"state_code":30,"mun_code":34,"date":"2017-10-01","name":"CERRO AZUL, VER","count":7,"rate":303.4466},{"long":-98.8834,"lat":19.573,"state_code":15,"mun_code":28,"date":"2017-10-01","name":"CHIAUTLA, MEX","count":16,"rate":599.453},{"long":-98.9472,"lat":19.4162,"state_code":15,"mun_code":31,"date":"2017-10-01","name":"CHIMALHUACAN, MEX","count":183,"rate":289.3833},{"long":-97.5374,"lat":20.4275,"state_code":30,"mun_code":40,"date":"2017-10-01","name":"COATZINTLA, VER","count":15,"rate":328.5369},{"long":-106.9487,"lat":28.7235,"state_code":8,"mun_code":17,"date":"2017-10-01","name":"CUAUHTEMOC, CHIH","count":22,"rate":141.4765},{"long":-104.3111,"lat":19.4356,"state_code":14,"mun_code":27,"date":"2017-10-01","name":"CUAUTITLAN DE GARCIA BARRAGAN, JAL","count":5,"rate":314.27},{"long":-104.1951,"lat":19.8011,"state_code":14,"mun_code":37,"date":"2017-10-01","name":"EL GRULLO, JAL","count":5,"rate":221.9592},{"long":-102.0354,"lat":21.9215,"state_code":1,"mun_code":10,"date":"2017-10-01","name":"EL LLANO, AGS","count":8,"rate":445.8784},{"long":-101.7252,"lat":19.6198,"state_code":16,"mun_code":32,"date":"2017-10-01","name":"ERONGARICUARO, MICH","count":5,"rate":372.8059},{"long":-97.029,"lat":18.8506,"state_code":30,"mun_code":85,"date":"2017-10-01","name":"IXTACZOQUITLAN, VER","count":34,"rate":560.349},{"long":-99.2684,"lat":19.269,"state_code":9,"mun_code":8,"date":"2017-10-01","name":"LA MAGDALENA CONTRERAS, CDMX","count":16,"rate":76.9471},{"long":-99.2046,"lat":19.4281,"state_code":9,"mun_code":16,"date":"2017-10-01","name":"MIGUEL HIDALGO, CDMX","count":54,"rate":165.8275},{"long":-99.0511,"lat":19.1395,"state_code":9,"mun_code":9,"date":"2017-10-01","name":"MILPA ALTA, CDMX","count":11,"rate":92.7413},{"long":-98.7171,"lat":19.8123,"state_code":15,"mun_code":61,"date":"2017-10-01","name":"NOPALTEPEC, MEX","count":7,"rate":809.0199},{"long":-101.599,"lat":19.4945,"state_code":16,"mun_code":66,"date":"2017-10-01","name":"PATZCUARO, MICH","count":26,"rate":319.83},{"long":-100.1724,"lat":20.472,"state_code":22,"mun_code":12,"date":"2017-10-01","name":"PEDRO ESCOBEDO, QRO","count":27,"rate":436.4841},{"long":-101.5951,"lat":20.8258,"state_code":11,"mun_code":26,"date":"2017-10-01","name":"ROMITA, GTO","count":15,"rate":285.9241},{"long":-108.076,"lat":25.4185,"state_code":25,"mun_code":15,"date":"2017-10-01","name":"SALVADOR ALVARADO, SIN","count":6,"rate":81.3115},{"long":-102.229,"lat":22.0331,"state_code":1,"mun_code":11,"date":"2017-10-01","name":"SAN FRANCISCO DE LOS ROMO, AGS","count":15,"rate":413.8499},{"long":-96.7486,"lat":17.019,"state_code":20,"mun_code":385,"date":"2017-10-01","name":"SANTA CRUZ XOXOCOTLAN, OAX","count":15,"rate":196.4006},{"long":-101.1575,"lat":19.8164,"state_code":16,"mun_code":88,"date":"2017-10-01","name":"TARIMBARO, MICH","count":28,"rate":322.0471},{"long":-103.8696,"lat":18.902,"state_code":6,"mun_code":9,"date":"2017-10-01","name":"TECOMAN, COL","count":15,"rate":134.028},{"long":-99.4694,"lat":18.101,"state_code":12,"mun_code":59,"date":"2017-10-01","name":"TEPECOACUILCO DE TRUJANO, GRO","count":6,"rate":220.54},{"long":-101.5495,"lat":19.61,"state_code":16,"mun_code":100,"date":"2017-10-01","name":"TZINTZUNTZAN, MICH","count":6,"rate":474.4479},{"long":-93.3752,"lat":16.3461,"state_code":7,"mun_code":108,"date":"2017-10-01","name":"VILLAFLORES, CHPS","count":5,"rate":53.6125}],"ext":[{"long":-102.2958,"lat":21.8114,"state_code":1,"mun_code":1,"date":"2017-10-01","name":"AGUASCALIENTES, AGS","count":5,"rate":6.5221},{"long":-99.5883,"lat":19.2474,"state_code":15,"mun_code":54,"date":"2017-10-01","name":"METEPEC, MEX","count":6,"rate":28.9234},{"long":-98.3734,"lat":25.8102,"state_code":28,"mun_code":32,"date":"2017-10-01","name":"REYNOSA, TAM","count":5,"rate":8.2393}]}
