{"hom":[{"long":-98.7521,"lat":18.5252,"state_code":17,"mun_code":3,"date":"2017-09-01","name":"AXOCHIAPAN, MOR","count":5,"rate":161.3901},{"long":-94.3974,"lat":18.1326,"state_code":30,"mun_code":39,"date":"2017-09-01","name":"COATZACOALCOS, VER","count":21,"rate":75.6491},{"long":-97.5374,"lat":20.4275,"state_code":30,"mun_code":40,"date":"2017-09-01","name":"COATZINTLA, VER","count":6,"rate":135.885},{"long":-96.3662,"lat":18.8627,"state_code":30,"mun_code":49,"date":"2017-09-01","name":"COTAXTLA, VER","count":5,"rate":288.9617},{"long":-96.8,"lat":18.1446,"state_code":20,"mun_code":41,"date":"2017-09-01","name":"HUAUTLA DE JIMENEZ, OAX","count":5,"rate":204.5617},{"long":-100.4527,"lat":20.7288,"state_code":22,"mun_code":14,"date":"2017-09-01","name":"QUERETARO, QRO","count":12,"rate":16.2041},{"long":-105.4871,"lat":21.568,"state_code":18,"mun_code":12,"date":"2017-09-01","name":"SAN BLAS, NAY","count":5,"rate":120.2453},{"long":-97.7312,"lat":18.8593,"state_code":21,"mun_code":154,"date":"2017-09-01","name":"TECAMACHALCO, PUE","count":9,"rate":134.5124},{"long":-116.269,"lat":32.4409,"state_code":2,"mun_code":3,"date":"2017-09-01","name":"TECATE, BC","count":10,"rate":104.8365},{"long":-104.8405,"lat":21.6216,"state_code":18,"mun_code":17,"date":"2017-09-01","name":"TEPIC, NAY","count":26,"rate":69.72},{"long":-116.82,"lat":32.4041,"state_code":2,"mun_code":4,"date":"2017-09-01","name":"TIJUANA, BC","count":182,"rate":122.7068},{"long":-103.2143,"lat":20.6201,"state_code":14,"mun_code":101,"date":"2017-09-01","name":"TONALA, JAL","count":5,"rate":10.9295},{"long":-96.8883,"lat":19.5439,"state_code":30,"mun_code":87,"date":"2017-09-01","name":"XALAPA, VER","count":10,"rate":23.8491},{"long":-97.999,"lat":19.9649,"state_code":21,"mun_code":208,"date":"2017-09-01","name":"ZACATLAN, PUE","count":5,"rate":71.2809}],"rvcv":[{"long":-97.9398,"lat":19.1033,"state_code":21,"mun_code":1,"date":"2017-09-01","name":"ACAJETE, PUE","count":9,"rate":160.0901},{"long":-97.2764,"lat":18.7161,"state_code":30,"mun_code":6,"date":"2017-09-01","name":"ACULTZINGO, VER","count":5,"rate":262.4442},{"long":-100.6217,"lat":20.5755,"state_code":11,"mun_code":5,"date":"2017-09-01","name":"APASEO EL GRANDE, GTO","count":11,"rate":141.1886},{"long":-98.9616,"lat":19.5456,"state_code":15,"mun_code":11,"date":"2017-09-01","name":"ATENCO, MEX","count":11,"rate":186.5118},{"long":-98.4523,"lat":18.8991,"state_code":21,"mun_code":19,"date":"2017-09-01","name":"ATLIXCO, PUE","count":5,"rate":43.8206},{"long":-98.5894,"lat":19.561,"state_code":29,"mun_code":6,"date":"2017-09-01","name":"CALPULALPAN, TLAX","count":7,"rate":166.0735},{"long":-97.4281,"lat":18.7332,"state_code":21,"mun_code":99,"date":"2017-09-01","name":"CAÃ‘ADA MORELOS, PUE","count":19,"rate":1121.6608},{"long":-100.7879,"lat":20.5376,"state_code":11,"mun_code":7,"date":"2017-09-01","name":"CELAYA, GTO","count":39,"rate":92.122},{"long":-97.4036,"lat":18.6396,"state_code":21,"mun_code":46,"date":"2017-09-01","name":"CHAPULCO, PUE","count":5,"rate":769.8229},{"long":-92.9706,"lat":16.5981,"state_code":7,"mun_code":27,"date":"2017-09-01","name":"CHIAPA DE CORZO, CHPS","count":5,"rate":58.6304},{"long":-99.6974,"lat":17.3908,"state_code":12,"mun_code":29,"date":"2017-09-01","name":"CHILPANCINGO DE LOS BRAVO, GRO","count":36,"rate":160.9406},{"long":-99.2252,"lat":19.6545,"state_code":15,"mun_code":121,"date":"2017-09-01","name":"CUAUTITLAN IZCALLI, MEX","count":175,"rate":367.5718},{"long":-114.9585,"lat":30.0362,"state_code":2,"mun_code":1,"date":"2017-09-01","name":"ENSENADA, BC","count":5,"rate":11.1681},{"long":-103.3358,"lat":20.676,"state_code":14,"mun_code":39,"date":"2017-09-01","name":"GUADALAJARA, JAL","count":237,"rate":186.6178},{"long":-99.1665,"lat":18.8852,"state_code":17,"mun_code":11,"date":"2017-09-01","name":"JIUTEPEC, MOR","count":30,"rate":164.7024},{"long":-92.8916,"lat":15.461,"state_code":7,"mun_code":51,"date":"2017-09-01","name":"MAPASTEPEC, CHPS","count":7,"rate":167.1642},{"long":-99.2926,"lat":19.4713,"state_code":15,"mun_code":57,"date":"2017-09-01","name":"NAUCALPAN DE JUAREZ, MEX","count":263,"rate":343.3054},{"long":-111.0024,"lat":31.1988,"state_code":26,"mun_code":43,"date":"2017-09-01","name":"NOGALES, SON","count":9,"rate":42.5938},{"long":-97.199,"lat":18.8254,"state_code":30,"mun_code":115,"date":"2017-09-01","name":"NOGALES, VER","count":15,"rate":482.729},{"long":-91.3375,"lat":16.7021,"state_code":7,"mun_code":59,"date":"2017-09-01","name":"OCOSINGO, CHPS","count":9,"rate":47.8276},{"long":-98.7822,"lat":20.1021,"state_code":13,"mun_code":48,"date":"2017-09-01","name":"PACHUCA DE SOTO, HGO","count":6,"rate":26.133},{"long":-97.5356,"lat":18.835,"state_code":21,"mun_code":110,"date":"2017-09-01","name":"PALMAR DE BRAVO, PUE","count":17,"rate":432.5791},{"long":-99.8317,"lat":20.2241,"state_code":15,"mun_code":71,"date":"2017-09-01","name":"POLOTITLAN, MEX","count":7,"rate":577.3593},{"long":-98.1755,"lat":19.0086,"state_code":21,"mun_code":114,"date":"2017-09-01","name":"PUEBLA, PUE","count":94,"rate":67.7588},{"long":-98.0378,"lat":25.7444,"state_code":28,"mun_code":33,"date":"2017-09-01","name":"RIO BRAVO, TAM","count":39,"rate":355.2209},{"long":-101.1651,"lat":20.6251,"state_code":11,"mun_code":27,"date":"2017-09-01","name":"SALAMANCA, GTO","count":6,"rate":25.6829},{"long":-98.2932,"lat":19.0236,"state_code":21,"mun_code":119,"date":"2017-09-01","name":"SAN ANDRES CHOLULA, PUE","count":8,"rate":79.7634},{"long":-100.0004,"lat":20.3689,"state_code":22,"mun_code":16,"date":"2017-09-01","name":"SAN JUAN DEL RIO, QRO","count":10,"rate":43.6424},{"long":-98.3431,"lat":19.073,"state_code":21,"mun_code":140,"date":"2017-09-01","name":"SAN PEDRO CHOLULA, PUE","count":7,"rate":63.8269},{"long":-97.9682,"lat":18.887,"state_code":21,"mun_code":153,"date":"2017-09-01","name":"TECALI DE HERRERA, PUE","count":8,"rate":425.4942},{"long":-97.7312,"lat":18.8593,"state_code":21,"mun_code":154,"date":"2017-09-01","name":"TECAMACHALCO, PUE","count":15,"rate":224.1873},{"long":-98.9865,"lat":19.7058,"state_code":15,"mun_code":81,"date":"2017-09-01","name":"TECAMAC, MEX","count":115,"rate":296.3167},{"long":-99.1682,"lat":19.7622,"state_code":15,"mun_code":91,"date":"2017-09-01","name":"TEOLOYUCAN, MEX","count":21,"rate":396.2763},{"long":-98.931,"lat":19.5969,"state_code":15,"mun_code":100,"date":"2017-09-01","name":"TEZOYUCA, MEX","count":14,"rate":367.6712},{"long":-116.82,"lat":32.4041,"state_code":2,"mun_code":4,"date":"2017-09-01","name":"TIJUANA, BC","count":121,"rate":81.5798},{"long":-97.6289,"lat":18.6557,"state_code":21,"mun_code":177,"date":"2017-09-01","name":"TLACOTEPEC DE BENITO JUAREZ, PUE","count":7,"rate":158.9163},{"long":-99.1701,"lat":19.5427,"state_code":15,"mun_code":104,"date":"2017-09-01","name":"TLALNEPANTLA DE BAZ, MEX","count":330,"rate":554.1484},{"long":-93.3752,"lat":16.3461,"state_code":7,"mun_code":108,"date":"2017-09-01","name":"VILLAFLORES, CHPS","count":6,"rate":66.5324},{"long":-102.4698,"lat":20.2662,"state_code":16,"mun_code":105,"date":"2017-09-01","name":"VISTA HERMOSA, MICH","count":6,"rate":361.4821},{"long":-99.0718,"lat":19.8091,"state_code":15,"mun_code":120,"date":"2017-09-01","name":"ZUMPANGO, MEX","count":38,"rate":232.9383}],"rvsv":[{"long":-97.9398,"lat":19.1033,"state_code":21,"mun_code":1,"date":"2017-09-01","name":"ACAJETE, PUE","count":6,"rate":106.7267},{"long":-98.447,"lat":19.7229,"state_code":13,"mun_code":8,"date":"2017-09-01","name":"APAN, HGO","count":16,"rate":420.1221},{"long":-102.3006,"lat":20.7664,"state_code":14,"mun_code":8,"date":"2017-09-01","name":"ARANDAS, JAL","count":12,"rate":175.0781},{"long":-98.1347,"lat":19.821,"state_code":21,"mun_code":53,"date":"2017-09-01","name":"CHIGNAHUAPAN, PUE","count":6,"rate":111.3},{"long":-97.5374,"lat":20.4275,"state_code":30,"mun_code":40,"date":"2017-09-01","name":"COATZINTLA, VER","count":8,"rate":181.1799},{"long":-98.2561,"lat":19.1167,"state_code":21,"mun_code":41,"date":"2017-09-01","name":"CUAUTLANCINGO, PUE","count":15,"rate":178.3803},{"long":-99.263,"lat":18.9389,"state_code":17,"mun_code":7,"date":"2017-09-01","name":"CUERNAVACA, MOR","count":51,"rate":155.1417},{"long":-103.679,"lat":20.755,"state_code":14,"mun_code":9,"date":"2017-09-01","name":"EL ARENAL, JAL","count":6,"rate":361.7727},{"long":-97.9364,"lat":19.3324,"state_code":29,"mun_code":13,"date":"2017-09-01","name":"HUAMANTLA, TLAX","count":18,"rate":225.2957},{"long":-98.4488,"lat":19.1671,"state_code":21,"mun_code":74,"date":"2017-09-01","name":"HUEJOTZINGO, PUE","count":12,"rate":208.8621},{"long":-99.6807,"lat":20.3838,"state_code":13,"mun_code":29,"date":"2017-09-01","name":"HUICHAPAN, HGO","count":11,"rate":273.6375},{"long":-97.029,"lat":18.8506,"state_code":30,"mun_code":85,"date":"2017-09-01","name":"IXTACZOQUITLAN, VER","count":11,"rate":187.4521},{"long":-115.1641,"lat":31.739,"state_code":2,"mun_code":2,"date":"2017-09-01","name":"MEXICALI, BC","count":318,"rate":361.3763},{"long":-107.7646,"lat":24.7233,"state_code":25,"mun_code":18,"date":"2017-09-01","name":"NAVOLATO, SIN","count":20,"rate":167.4586},{"long":-97.199,"lat":18.8254,"state_code":30,"mun_code":115,"date":"2017-09-01","name":"NOGALES, VER","count":10,"rate":321.8194},{"long":-93.4923,"lat":16.8279,"state_code":7,"mun_code":61,"date":"2017-09-01","name":"OCOZOCOAUTLA DE ESPINOSA, CHPS","count":8,"rate":103.1227},{"long":-102.3017,"lat":22.1045,"state_code":1,"mun_code":6,"date":"2017-09-01","name":"PABELLON DE ARTEAGA, AGS","count":5,"rate":130.7617},{"long":-98.2932,"lat":19.0236,"state_code":21,"mun_code":119,"date":"2017-09-01","name":"SAN ANDRES CHOLULA, PUE","count":19,"rate":189.438},{"long":-98.4285,"lat":19.269,"state_code":21,"mun_code":132,"date":"2017-09-01","name":"SAN MARTIN TEXMELUCAN, PUE","count":27,"rate":208.007},{"long":-98.3431,"lat":19.073,"state_code":21,"mun_code":140,"date":"2017-09-01","name":"SAN PEDRO CHOLULA, PUE","count":22,"rate":200.5988},{"long":-99.3635,"lat":19.9027,"state_code":13,"mun_code":63,"date":"2017-09-01","name":"TEPEJI DEL RIO DE OCAMPO, HGO","count":13,"rate":173.1794},{"long":-99.231,"lat":20.0962,"state_code":13,"mun_code":74,"date":"2017-09-01","name":"TLAXCOAPAN, HGO","count":15,"rate":622.7081},{"long":-98.3509,"lat":20.1236,"state_code":13,"mun_code":77,"date":"2017-09-01","name":"TULANCINGO DE BRAVO, HGO","count":80,"rate":562.2551},{"long":-93.3752,"lat":16.3461,"state_code":7,"mun_code":108,"date":"2017-09-01","name":"VILLAFLORES, CHPS","count":10,"rate":110.8873}],"lesions":[{"long":-102.2958,"lat":21.8114,"state_code":1,"mun_code":1,"date":"2017-09-01","name":"AGUASCALIENTES, AGS","count":244,"rate":329.2151},{"long":-103.9984,"lat":19.0092,"state_code":6,"mun_code":1,"date":"2017-09-01","name":"ARMERIA, COL","count":5,"rate":182.9268},{"long":-97.2855,"lat":20.7144,"state_code":30,"mun_code":33,"date":"2017-09-01","name":"CAZONES DE HERRERA, VER","count":17,"rate":840.1977},{"long":-97.7692,"lat":21.1874,"state_code":30,"mun_code":34,"date":"2017-09-01","name":"CERRO AZUL, VER","count":19,"rate":851.3498},{"long":-100.2116,"lat":22.0158,"state_code":24,"mun_code":11,"date":"2017-09-01","name":"CIUDAD FERNANDEZ, SLP","count":12,"rate":306.9708},{"long":-97.5374,"lat":20.4275,"state_code":30,"mun_code":40,"date":"2017-09-01","name":"COATZINTLA, VER","count":13,"rate":294.4174},{"long":-103.77,"lat":19.3934,"state_code":6,"mun_code":3,"date":"2017-09-01","name":"COMALA, COL","count":7,"rate":366.0769},{"long":-106.9487,"lat":28.7235,"state_code":8,"mun_code":17,"date":"2017-09-01","name":"CUAUHTEMOC, CHIH","count":24,"rate":159.6346},{"long":-103.5955,"lat":19.3268,"state_code":6,"mun_code":5,"date":"2017-09-01","name":"CUAUHTEMOC, COL","count":5,"rate":203.5969},{"long":-100.3568,"lat":25.9007,"state_code":19,"mun_code":10,"date":"2017-09-01","name":"EL CARMEN, NL","count":5,"rate":263.2272},{"long":-102.0354,"lat":21.9215,"state_code":1,"mun_code":10,"date":"2017-09-01","name":"EL LLANO, AGS","count":12,"rate":691.8088},{"long":-102.0071,"lat":19.1588,"state_code":16,"mun_code":33,"date":"2017-09-01","name":"GABRIEL ZAMORA, MICH","count":5,"rate":266.1698},{"long":-107.2478,"lat":27.1504,"state_code":8,"mun_code":27,"date":"2017-09-01","name":"GUACHOCHI, CHIH","count":11,"rate":236.61},{"long":-97.029,"lat":18.8506,"state_code":30,"mun_code":85,"date":"2017-09-01","name":"IXTACZOQUITLAN, VER","count":27,"rate":460.1096},{"long":-92.787,"lat":17.7636,"state_code":27,"mun_code":9,"date":"2017-09-01","name":"JALAPA, TAB","count":14,"rate":434.7264},{"long":-99.2684,"lat":19.269,"state_code":9,"mun_code":8,"date":"2017-09-01","name":"LA MAGDALENA CONTRERAS, CDMX","count":25,"rate":124.2231},{"long":-102.0723,"lat":20.3056,"state_code":16,"mun_code":69,"date":"2017-09-01","name":"LA PIEDAD, MICH","count":5,"rate":56.2056},{"long":-111.4485,"lat":25.9532,"state_code":3,"mun_code":9,"date":"2017-09-01","name":"LORETO, BCS","count":7,"rate":372.0436},{"long":-99.0511,"lat":19.1395,"state_code":9,"mun_code":9,"date":"2017-09-01","name":"MILPA ALTA, CDMX","count":15,"rate":130.7038},{"long":-96.7034,"lat":16.7618,"state_code":20,"mun_code":68,"date":"2017-09-01","name":"OCOTLAN DE MORELOS, OAX","count":7,"rate":367.5827},{"long":-101.7151,"lat":21.8108,"state_code":14,"mun_code":64,"date":"2017-09-01","name":"OJUELOS DE JALISCO, JAL","count":13,"rate":478.7038},{"long":-99.9771,"lat":25.7368,"state_code":19,"mun_code":41,"date":"2017-09-01","name":"PESQUERIA, NL","count":15,"rate":609.1989},{"long":-97.8936,"lat":16.9983,"state_code":20,"mun_code":73,"date":"2017-09-01","name":"PUTLA VILLA DE GUERRERO, OAX","count":5,"rate":175.9324},{"long":-100.8468,"lat":19.7265,"state_code":16,"mun_code":72,"date":"2017-09-01","name":"QUERENDARO, MICH","count":5,"rate":419.4631},{"long":-97.1509,"lat":18.8445,"state_code":30,"mun_code":138,"date":"2017-09-01","name":"RIO BLANCO, VER","count":8,"rate":228.713},{"long":-102.229,"lat":22.0331,"state_code":1,"mun_code":11,"date":"2017-09-01","name":"SAN FRANCISCO DE LOS ROMO, AGS","count":17,"rate":485.2983},{"long":-100.3886,"lat":21.0023,"state_code":11,"mun_code":32,"date":"2017-09-01","name":"SAN JOSE ITURBIDE, GTO","count":10,"rate":147.1093},{"long":-98.3928,"lat":20.0357,"state_code":13,"mun_code":56,"date":"2017-09-01","name":"SANTIAGO TULANTEPEC DE LUGO GUERRERO, HGO","count":12,"rate":386.6602},{"long":-98.6482,"lat":21.0318,"state_code":13,"mun_code":73,"date":"2017-09-01","name":"TLANCHINOL, HGO","count":5,"rate":155.7107},{"long":-100.7693,"lat":19.8707,"state_code":16,"mun_code":110,"date":"2017-09-01","name":"ZINAPECUARO, MICH","count":9,"rate":221.7932}],"kidnapping":[{"long":-102.6781,"lat":22.7357,"state_code":32,"mun_code":56,"date":"2017-09-01","name":"ZACATECAS, ZAC","count":5,"rate":40.7587}],"ext":[{"long":-102.2958,"lat":21.8114,"state_code":1,"mun_code":1,"date":"2017-09-01","name":"AGUASCALIENTES, AGS","count":16,"rate":21.5879},{"long":-97.7692,"lat":21.1874,"state_code":30,"mun_code":34,"date":"2017-09-01","name":"CERRO AZUL, VER","count":7,"rate":313.6552},{"long":-97.4385,"lat":20.53,"state_code":30,"mun_code":131,"date":"2017-09-01","name":"POZA RICA DE HIDALGO, VER","count":5,"rate":29.1514}]}
