{"hom":[{"long":-100.752,"lat":20.0525,"state_code":11,"mun_code":2,"date":"2016-05-01","name":"ACAMBARO, GTO","count":9,"rate":92.561},{"long":-93.6468,"lat":18.1702,"state_code":27,"mun_code":2,"date":"2016-05-01","name":"CARDENAS, TAB","count":10,"rate":43.5464},{"long":-103.6327,"lat":19.1161,"state_code":6,"mun_code":2,"date":"2016-05-01","name":"COLIMA, COL","count":10,"rate":71.1597},{"long":-102.316,"lat":19.9349,"state_code":16,"mun_code":43,"date":"2016-05-01","name":"JACONA, MICH","count":5,"rate":86.9346},{"long":-99.3917,"lat":19.625,"state_code":15,"mun_code":60,"date":"2016-05-01","name":"NICOLAS ROMERO, MEX","count":11,"rate":29.5526},{"long":-97.4385,"lat":20.53,"state_code":30,"mun_code":131,"date":"2016-05-01","name":"POZA RICA DE HIDALGO, VER","count":6,"rate":34.126},{"long":-101.1651,"lat":20.6251,"state_code":11,"mun_code":27,"date":"2016-05-01","name":"SALAMANCA, GTO","count":10,"rate":41.7786},{"long":-100.8551,"lat":22.2716,"state_code":24,"mun_code":35,"date":"2016-05-01","name":"SOLEDAD DE GRACIANO SANCHEZ, SLP","count":6,"rate":22.8785},{"long":-92.3048,"lat":14.934,"state_code":7,"mun_code":89,"date":"2016-05-01","name":"TAPACHULA, CHPS","count":5,"rate":16.1172},{"long":-103.8696,"lat":18.902,"state_code":6,"mun_code":9,"date":"2016-05-01","name":"TECOMAN, COL","count":13,"rate":118.9022},{"long":-97.5302,"lat":20.6604,"state_code":30,"mun_code":175,"date":"2016-05-01","name":"TIHUATLAN, VER","count":8,"rate":96.3507},{"long":-102.2641,"lat":20.033,"state_code":16,"mun_code":108,"date":"2016-05-01","name":"ZAMORA, MICH","count":17,"rate":100.3331}],"rvcv":[{"long":-111.4735,"lat":29.0237,"state_code":26,"mun_code":30,"date":"2016-05-01","name":"HERMOSILLO, SON","count":18,"rate":23.7088},{"long":-101.855,"lat":18.0167,"state_code":12,"mun_code":68,"date":"2016-05-01","name":"LA UNION DE ISIDORO MONTES DE OCA, GRO","count":8,"rate":354.7143},{"long":-102.1238,"lat":18.9711,"state_code":16,"mun_code":55,"date":"2016-05-01","name":"MUGICA, MICH","count":12,"rate":289.7732},{"long":-98.7171,"lat":19.8123,"state_code":15,"mun_code":61,"date":"2016-05-01","name":"NOPALTEPEC, MEX","count":7,"rate":823.5267},{"long":-97.2863,"lat":20.4109,"state_code":30,"mun_code":124,"date":"2016-05-01","name":"PAPANTLA, VER","count":19,"rate":134.0534},{"long":-99.9771,"lat":25.7368,"state_code":19,"mun_code":41,"date":"2016-05-01","name":"PESQUERIA, NL","count":5,"rate":203.821},{"long":-97.4385,"lat":20.53,"state_code":30,"mun_code":131,"date":"2016-05-01","name":"POZA RICA DE HIDALGO, VER","count":19,"rate":108.0656},{"long":-98.1755,"lat":19.0086,"state_code":21,"mun_code":114,"date":"2016-05-01","name":"PUEBLA, PUE","count":22,"rate":15.5131},{"long":-106.3702,"lat":23.9545,"state_code":25,"mun_code":16,"date":"2016-05-01","name":"SAN IGNACIO, SIN","count":6,"rate":303.4202},{"long":-99.1453,"lat":19.6262,"state_code":15,"mun_code":109,"date":"2016-05-01","name":"TULTITLAN, MEX","count":84,"rate":163.1533},{"long":-103.4942,"lat":20.7949,"state_code":14,"mun_code":120,"date":"2016-05-01","name":"ZAPOPAN, JAL","count":80,"rate":68.5818},{"long":-103.0488,"lat":20.636,"state_code":14,"mun_code":124,"date":"2016-05-01","name":"ZAPOTLANEJO, JAL","count":6,"rate":98.7968}],"rvsv":[{"long":-98.7521,"lat":18.5252,"state_code":17,"mun_code":3,"date":"2016-05-01","name":"AXOCHIAPAN, MOR","count":8,"rate":253.7577},{"long":-95.5584,"lat":18.0821,"state_code":30,"mun_code":77,"date":"2016-05-01","name":"ISLA, VER","count":10,"rate":255.9487},{"long":-93.0839,"lat":18.2133,"state_code":27,"mun_code":10,"date":"2016-05-01","name":"JALPA DE MENDEZ, TAB","count":8,"rate":103.4269},{"long":-101.8797,"lat":21.494,"state_code":14,"mun_code":53,"date":"2016-05-01","name":"LAGOS DE MORENO, JAL","count":27,"rate":186.2324},{"long":-100.8551,"lat":22.2716,"state_code":24,"mun_code":35,"date":"2016-05-01","name":"SOLEDAD DE GRACIANO SANCHEZ, SLP","count":26,"rate":99.1402},{"long":-92.3048,"lat":14.934,"state_code":7,"mun_code":89,"date":"2016-05-01","name":"TAPACHULA, CHPS","count":27,"rate":87.033},{"long":-99.1682,"lat":19.7622,"state_code":15,"mun_code":91,"date":"2016-05-01","name":"TEOLOYUCAN, MEX","count":25,"rate":461.2835}],"lesions":[{"long":-97.0779,"lat":18.9443,"state_code":30,"mun_code":22,"date":"2016-05-01","name":"ATZACAN, VER","count":5,"rate":269.9043},{"long":-104.3122,"lat":19.7435,"state_code":14,"mun_code":15,"date":"2016-05-01","name":"AUTLAN DE NAVARRO, JAL","count":10,"rate":187.0846},{"long":-112.5395,"lat":30.825,"state_code":26,"mun_code":17,"date":"2016-05-01","name":"CABORCA, SON","count":7,"rate":87.8349},{"long":-99.657,"lat":20.7914,"state_code":22,"mun_code":4,"date":"2016-05-01","name":"CADEREYTA DE MONTES, QRO","count":9,"rate":149.7494},{"long":-103.1879,"lat":20.2599,"state_code":14,"mun_code":30,"date":"2016-05-01","name":"CHAPALA, JAL","count":11,"rate":239.927},{"long":-101.668,"lat":20.6152,"state_code":11,"mun_code":12,"date":"2016-05-01","name":"CUERAMARO, GTO","count":13,"rate":515.9703},{"long":-103.4906,"lat":25.728,"state_code":10,"mun_code":7,"date":"2016-05-01","name":"GOMEZ PALACIO, DGO","count":112,"rate":363.9502},{"long":-109.4064,"lat":26.6507,"state_code":26,"mun_code":33,"date":"2016-05-01","name":"HUATABAMPO, SON","count":7,"rate":94.6744},{"long":-97.1666,"lat":18.8899,"state_code":30,"mun_code":81,"date":"2016-05-01","name":"IXHUATLANCILLO, VER","count":5,"rate":230.2594},{"long":-93.0839,"lat":18.2133,"state_code":27,"mun_code":10,"date":"2016-05-01","name":"JALPA DE MENDEZ, TAB","count":47,"rate":607.6331},{"long":-103.4172,"lat":20.3145,"state_code":14,"mun_code":50,"date":"2016-05-01","name":"JOCOTEPEC, JAL","count":7,"rate":177.777},{"long":-88.8176,"lat":19.6408,"state_code":23,"mun_code":6,"date":"2016-05-01","name":"JOSE MARIA MORELOS, QROO","count":15,"rate":412.0973},{"long":-104.3027,"lat":19.1495,"state_code":6,"mun_code":7,"date":"2016-05-01","name":"MANZANILLO, COL","count":27,"rate":169.874},{"long":-101.2791,"lat":19.6666,"state_code":16,"mun_code":53,"date":"2016-05-01","name":"MORELIA, MICH","count":129,"rate":193.8908},{"long":-98.7822,"lat":20.1021,"state_code":13,"mun_code":48,"date":"2016-05-01","name":"PACHUCA DE SOTO, HGO","count":175,"rate":745.0446},{"long":-102.8947,"lat":20.2702,"state_code":14,"mun_code":66,"date":"2016-05-01","name":"PONCITLAN, JAL","count":6,"rate":133.2239},{"long":-103.8696,"lat":18.902,"state_code":6,"mun_code":9,"date":"2016-05-01","name":"TECOMAN, COL","count":11,"rate":100.6096},{"long":-99.4322,"lat":19.1623,"state_code":15,"mun_code":101,"date":"2016-05-01","name":"TIANGUISTENCO, MEX","count":5,"rate":72.8255},{"long":-98.9612,"lat":19.8525,"state_code":13,"mun_code":69,"date":"2016-05-01","name":"TIZAYUCA, HGO","count":46,"rate":411.0541},{"long":-100.1973,"lat":22.2892,"state_code":24,"mun_code":52,"date":"2016-05-01","name":"VILLA JUAREZ, SLP","count":8,"rate":885.2985}],"ext":[{"long":-104.3027,"lat":19.1495,"state_code":6,"mun_code":7,"date":"2016-05-01","name":"MANZANILLO, COL","count":7,"rate":44.0414}]}
