{"hom":[{"long":-99.1611,"lat":19.3806,"state_code":9,"mun_code":14,"date":"2016-12-01","name":"BENITO JUAREZ, CDMX","count":10,"rate":29.3452},{"long":-107.2667,"lat":24.6515,"state_code":25,"mun_code":6,"date":"2016-12-01","name":"CULIACAN, SIN","count":36,"rate":43.8703},{"long":-100.2058,"lat":25.6727,"state_code":19,"mun_code":26,"date":"2016-12-01","name":"GUADALUPE, NL","count":10,"rate":16.3485},{"long":-99.0568,"lat":19.3492,"state_code":9,"mun_code":7,"date":"2016-12-01","name":"IZTAPALAPA, CDMX","count":29,"rate":18.7472},{"long":-102.7534,"lat":19.9775,"state_code":16,"mun_code":45,"date":"2016-12-01","name":"JIQUILPAN, MICH","count":5,"rate":160.8435},{"long":-109.7533,"lat":23.2766,"state_code":3,"mun_code":8,"date":"2016-12-01","name":"LOS CABOS, BCS","count":13,"rate":46.7778},{"long":-106.306,"lat":23.4684,"state_code":25,"mun_code":12,"date":"2016-12-01","name":"MAZATLAN, SIN","count":39,"rate":93.1706},{"long":-99.2046,"lat":19.4281,"state_code":9,"mun_code":16,"date":"2016-12-01","name":"MIGUEL HIDALGO, CDMX","count":8,"rate":24.5087},{"long":-102.1238,"lat":18.9711,"state_code":16,"mun_code":55,"date":"2016-12-01","name":"MUGICA, MICH","count":8,"rate":192.402},{"long":-98.2564,"lat":22.114,"state_code":30,"mun_code":123,"date":"2016-12-01","name":"PANUCO, VER","count":8,"rate":90.5507},{"long":-96.0925,"lat":18.0286,"state_code":20,"mun_code":184,"date":"2016-12-01","name":"SAN JUAN BAUTISTA TUXTEPEC, OAX","count":6,"rate":41.776},{"long":-116.269,"lat":32.4409,"state_code":2,"mun_code":3,"date":"2016-12-01","name":"TECATE, BC","count":6,"rate":61.471},{"long":-103.8696,"lat":18.902,"state_code":6,"mun_code":9,"date":"2016-12-01","name":"TECOMAN, COL","count":34,"rate":307.9745},{"long":-102.1056,"lat":19.4436,"state_code":16,"mun_code":102,"date":"2016-12-01","name":"URUAPAN, MICH","count":7,"rate":23.714}],"rvcv":[{"long":-96.121,"lat":19.1174,"state_code":30,"mun_code":28,"date":"2016-12-01","name":"BOCA DEL RIO, VER","count":13,"rate":107.8187},{"long":-99.7983,"lat":18.9463,"state_code":15,"mun_code":21,"date":"2016-12-01","name":"COATEPEC HARINAS, MEX","count":5,"rate":140.3406},{"long":-99.6807,"lat":20.3838,"state_code":13,"mun_code":29,"date":"2016-12-01","name":"HUICHAPAN, HGO","count":5,"rate":121.2887},{"long":-101.9212,"lat":18.842,"state_code":16,"mun_code":35,"date":"2016-12-01","name":"LA HUACANA, MICH","count":6,"rate":208.3281},{"long":-99.4749,"lat":19.3451,"state_code":15,"mun_code":51,"date":"2016-12-01","name":"LERMA, MEX","count":14,"rate":98.5373},{"long":-97.9248,"lat":22.1581,"state_code":30,"mun_code":133,"date":"2016-12-01","name":"PUEBLO VIEJO, VER","count":9,"rate":180.3184},{"long":-100.8551,"lat":22.2716,"state_code":24,"mun_code":35,"date":"2016-12-01","name":"SOLEDAD DE GRACIANO SANCHEZ, SLP","count":5,"rate":18.9183},{"long":-97.9682,"lat":18.887,"state_code":21,"mun_code":153,"date":"2016-12-01","name":"TECALI DE HERRERA, PUE","count":5,"rate":259.3555},{"long":-97.7312,"lat":18.8593,"state_code":21,"mun_code":154,"date":"2016-12-01","name":"TECAMACHALCO, PUE","count":11,"rate":160.5202},{"long":-102.7208,"lat":20.8148,"state_code":14,"mun_code":93,"date":"2016-12-01","name":"TEPATITLAN DE MORELOS, JAL","count":5,"rate":39.2164},{"long":-97.8762,"lat":19.0119,"state_code":21,"mun_code":164,"date":"2016-12-01","name":"TEPEACA, PUE","count":7,"rate":98.1269},{"long":-99.4322,"lat":19.1623,"state_code":15,"mun_code":101,"date":"2016-12-01","name":"TIANGUISTENCO, MEX","count":7,"rate":101.0722},{"long":-116.82,"lat":32.4041,"state_code":2,"mun_code":4,"date":"2016-12-01","name":"TIJUANA, BC","count":100,"rate":65.9521},{"long":-99.0718,"lat":19.8091,"state_code":15,"mun_code":120,"date":"2016-12-01","name":"ZUMPANGO, MEX","count":26,"rate":156.2854}],"rvsv":[{"long":-109.1332,"lat":25.8956,"state_code":25,"mun_code":1,"date":"2016-12-01","name":"AHOME, SIN","count":52,"rate":131.8847},{"long":-99.5505,"lat":19.2065,"state_code":15,"mun_code":27,"date":"2016-12-01","name":"CHAPULTEPEC, MEX","count":5,"rate":457.3089},{"long":-92.9706,"lat":16.5981,"state_code":7,"mun_code":27,"date":"2016-12-01","name":"CHIAPA DE CORZO, CHPS","count":6,"rate":68.7534},{"long":-98.9472,"lat":19.4162,"state_code":15,"mun_code":31,"date":"2016-12-01","name":"CHIMALHUACAN, MEX","count":27,"rate":43.3145},{"long":-93.3367,"lat":18.2869,"state_code":27,"mun_code":5,"date":"2016-12-01","name":"COMALCALCO, TAB","count":36,"rate":202.5428},{"long":-111.8201,"lat":25.4913,"state_code":3,"mun_code":1,"date":"2016-12-01","name":"COMONDU, BCS","count":18,"rate":253.9203},{"long":-103.9208,"lat":19.1881,"state_code":6,"mun_code":4,"date":"2016-12-01","name":"COQUIMATLAN, COL","count":6,"rate":320.8871},{"long":-99.2252,"lat":19.6545,"state_code":15,"mun_code":121,"date":"2016-12-01","name":"CUAUTITLAN IZCALLI, MEX","count":51,"rate":104.5672},{"long":-96.6595,"lat":18.7763,"state_code":30,"mun_code":53,"date":"2016-12-01","name":"CUITLAHUAC, VER","count":6,"rate":241.734},{"long":-114.9585,"lat":30.0362,"state_code":2,"mun_code":1,"date":"2016-12-01","name":"ENSENADA, BC","count":275,"rate":600.8399},{"long":-111.4735,"lat":29.0237,"state_code":26,"mun_code":30,"date":"2016-12-01","name":"HERMOSILLO, SON","count":84,"rate":109.7396},{"long":-97.9364,"lat":19.3324,"state_code":29,"mun_code":13,"date":"2016-12-01","name":"HUAMANTLA, TLAX","count":13,"rate":159.1043},{"long":-98.4517,"lat":21.1272,"state_code":13,"mun_code":28,"date":"2016-12-01","name":"HUEJUTLA DE REYES, HGO","count":7,"rate":63.0646},{"long":-99.5821,"lat":18.2268,"state_code":12,"mun_code":35,"date":"2016-12-01","name":"IGUALA DE LA INDEPENDENCIA, GRO","count":17,"rate":130.9199},{"long":-102.5233,"lat":20.3638,"state_code":14,"mun_code":18,"date":"2016-12-01","name":"LA BARCA, JAL","count":5,"rate":84.0443},{"long":-99.5292,"lat":24.8518,"state_code":19,"mun_code":33,"date":"2016-12-01","name":"LINARES, NL","count":6,"rate":80.1682},{"long":-97.8239,"lat":18.9624,"state_code":21,"mun_code":118,"date":"2016-12-01","name":"LOS REYES DE JUAREZ, PUE","count":6,"rate":254.0283},{"long":-96.1619,"lat":18.9883,"state_code":30,"mun_code":105,"date":"2016-12-01","name":"MEDELLIN DE BRAVO, VER","count":5,"rate":76.1752},{"long":-98.7197,"lat":20.059,"state_code":13,"mun_code":51,"date":"2016-12-01","name":"MINERAL DE LA REFORMA, HGO","count":16,"rate":106.0116},{"long":-99.8084,"lat":25.1263,"state_code":19,"mun_code":38,"date":"2016-12-01","name":"MONTEMORELOS, NL","count":9,"rate":160.7248},{"long":-94.3914,"lat":18.0628,"state_code":30,"mun_code":206,"date":"2016-12-01","name":"NANCHITAL DE LAZARO CARDENAS DEL RIO, VER","count":5,"rate":205.3927},{"long":-93.1991,"lat":17.5306,"state_code":7,"mun_code":68,"date":"2016-12-01","name":"PICHUCALCO, CHPS","count":7,"rate":255.6782},{"long":-102.8947,"lat":20.2702,"state_code":14,"mun_code":66,"date":"2016-12-01","name":"PONCITLAN, JAL","count":5,"rate":110.3007},{"long":-98.1755,"lat":19.0086,"state_code":21,"mun_code":114,"date":"2016-12-01","name":"PUEBLA, PUE","count":165,"rate":115.794},{"long":-102.7663,"lat":20.0551,"state_code":16,"mun_code":76,"date":"2016-12-01","name":"SAHUAYO, MICH","count":17,"rate":245.3969},{"long":-100.2373,"lat":25.3849,"state_code":19,"mun_code":49,"date":"2016-12-01","name":"SANTIAGO, NL","count":7,"rate":185.3151},{"long":-87.3978,"lat":20.587,"state_code":23,"mun_code":8,"date":"2016-12-01","name":"SOLIDARIDAD, QROO","count":8,"rate":42.7719},{"long":-103.6822,"lat":20.6074,"state_code":14,"mun_code":83,"date":"2016-12-01","name":"TALA, JAL","count":5,"rate":72.8575},{"long":-92.9524,"lat":17.6233,"state_code":27,"mun_code":16,"date":"2016-12-01","name":"TEAPA, TAB","count":10,"rate":203.9785},{"long":-116.269,"lat":32.4409,"state_code":2,"mun_code":3,"date":"2016-12-01","name":"TECATE, BC","count":81,"rate":829.859},{"long":-103.8696,"lat":18.902,"state_code":6,"mun_code":9,"date":"2016-12-01","name":"TECOMAN, COL","count":49,"rate":443.8456},{"long":-96.2865,"lat":18.5498,"state_code":30,"mun_code":174,"date":"2016-12-01","name":"TIERRA BLANCA, VER","count":25,"rate":286.5402},{"long":-116.82,"lat":32.4041,"state_code":2,"mun_code":4,"date":"2016-12-01","name":"TIJUANA, BC","count":945,"rate":623.2469},{"long":-98.975,"lat":18.954,"state_code":17,"mun_code":26,"date":"2016-12-01","name":"TLAYACAPAN, MOR","count":6,"rate":377.8602}],"lesions":[{"long":-102.5839,"lat":19.2039,"state_code":16,"mun_code":12,"date":"2016-12-01","name":"BUENAVISTA, MICH","count":5,"rate":128.9119},{"long":-99.1024,"lat":19.6263,"state_code":15,"mun_code":20,"date":"2016-12-01","name":"COACALCO DE BERRIOZABAL, MEX","count":103,"rate":398.8985},{"long":-103.2872,"lat":22.0917,"state_code":14,"mun_code":25,"date":"2016-12-01","name":"COLOTLAN, JAL","count":5,"rate":292.6934},{"long":-103.679,"lat":20.755,"state_code":14,"mun_code":9,"date":"2016-12-01","name":"EL ARENAL, JAL","count":6,"rate":353.3338},{"long":-102.0354,"lat":21.9215,"state_code":1,"mun_code":10,"date":"2016-12-01","name":"EL LLANO, AGS","count":5,"rate":281.5113},{"long":-99.0803,"lat":20.2353,"state_code":13,"mun_code":23,"date":"2016-12-01","name":"FRANCISCO I. MADERO, HGO","count":10,"rate":310.0246},{"long":-100.3923,"lat":24.7605,"state_code":19,"mun_code":17,"date":"2016-12-01","name":"GALEANA, NL","count":8,"rate":221.8532},{"long":-99.6908,"lat":18.8507,"state_code":15,"mun_code":40,"date":"2016-12-01","name":"IXTAPAN DE LA SAL, MEX","count":12,"rate":364.3073},{"long":-93.9572,"lat":17.5358,"state_code":30,"mun_code":61,"date":"2016-12-01","name":"LAS CHOAPAS, VER","count":13,"rate":181.0881},{"long":-90.0697,"lat":20.6219,"state_code":31,"mun_code":48,"date":"2016-12-01","name":"MAXCANU, YUC","count":12,"rate":591.4891},{"long":-99.0227,"lat":19.4226,"state_code":15,"mun_code":58,"date":"2016-12-01","name":"NEZAHUALCOYOTL, MEX","count":241,"rate":234.9924},{"long":-97.9248,"lat":22.1581,"state_code":30,"mun_code":133,"date":"2016-12-01","name":"PUEBLO VIEJO, VER","count":19,"rate":380.6721},{"long":-98.94,"lat":20.0956,"state_code":13,"mun_code":52,"date":"2016-12-01","name":"SAN AGUSTIN TLAXIACA, HGO","count":9,"rate":293.2387},{"long":-96.7486,"lat":17.019,"state_code":20,"mun_code":385,"date":"2016-12-01","name":"SANTA CRUZ XOXOCOTLAN, OAX","count":16,"rate":211.2445},{"long":-100.2998,"lat":19.1797,"state_code":15,"mun_code":78,"date":"2016-12-01","name":"SANTO TOMAS, MEX","count":5,"rate":582.743},{"long":-101.4378,"lat":20.9631,"state_code":11,"mun_code":37,"date":"2016-12-01","name":"SILAO DE LA VICTORIA, GTO","count":34,"rate":208.2812},{"long":-87.3978,"lat":20.587,"state_code":23,"mun_code":8,"date":"2016-12-01","name":"SOLIDARIDAD, QROO","count":29,"rate":155.0483},{"long":-95.623,"lat":18.5337,"state_code":30,"mun_code":178,"date":"2016-12-01","name":"TLACOTALPAN, VER","count":6,"rate":527.4596},{"long":-93.1373,"lat":16.7394,"state_code":7,"mun_code":101,"date":"2016-12-01","name":"TUXTLA GUTIERREZ, CHPS","count":32,"rate":59.4643},{"long":-98.9484,"lat":19.2764,"state_code":15,"mun_code":122,"date":"2016-12-01","name":"VALLE DE CHALCO SOLIDARIDAD, MEX","count":22,"rate":63.1211},{"long":-102.1764,"lat":23.6048,"state_code":32,"mun_code":51,"date":"2016-12-01","name":"VILLA DE COS, ZAC","count":5,"rate":156.9778},{"long":-100.6767,"lat":22.0082,"state_code":24,"mun_code":55,"date":"2016-12-01","name":"ZARAGOZA, SLP","count":5,"rate":215.3728}],"kidnapping":[{"long":-99.6738,"lat":27.4758,"state_code":28,"mun_code":27,"date":"2016-12-01","name":"NUEVO LAREDO, TAM","count":7,"rate":19.2776}],"ext":[{"long":-102.2958,"lat":21.8114,"state_code":1,"mun_code":1,"date":"2016-12-01","name":"AGUASCALIENTES, AGS","count":11,"rate":14.4947},{"long":-100.1873,"lat":25.7923,"state_code":19,"mun_code":6,"date":"2016-12-01","name":"APODACA, NL","count":13,"rate":24.3705},{"long":-92.8602,"lat":18.0091,"state_code":27,"mun_code":4,"date":"2016-12-01","name":"CENTRO, TAB","count":16,"rate":26.4569},{"long":-109.7533,"lat":23.2766,"state_code":3,"mun_code":8,"date":"2016-12-01","name":"LOS CABOS, BCS","count":9,"rate":32.3846}]}
