{"hom":[{"long":-98.978,"lat":18.7172,"state_code":17,"mun_code":4,"date":"2017-02-01","name":"AYALA, MOR","count":5,"rate":73.5989},{"long":-100.7879,"lat":20.5376,"state_code":11,"mun_code":7,"date":"2017-02-01","name":"CELAYA, GTO","count":16,"rate":40.6708},{"long":-92.8602,"lat":18.0091,"state_code":27,"mun_code":4,"date":"2017-02-01","name":"CENTRO, TAB","count":14,"rate":25.5876},{"long":-99.0632,"lat":22.1074,"state_code":24,"mun_code":13,"date":"2017-02-01","name":"CIUDAD VALLES, SLP","count":5,"rate":35.4641},{"long":-111.4735,"lat":29.0237,"state_code":26,"mun_code":30,"date":"2017-02-01","name":"HERMOSILLO, SON","count":8,"rate":11.5444},{"long":-101.6224,"lat":21.1247,"state_code":11,"mun_code":20,"date":"2017-02-01","name":"LEON, GTO","count":32,"rate":26.5572},{"long":-109.7533,"lat":23.2766,"state_code":3,"mun_code":8,"date":"2017-02-01","name":"LOS CABOS, BCS","count":26,"rate":102.9931},{"long":-108.3293,"lat":29.3269,"state_code":8,"mun_code":40,"date":"2017-02-01","name":"MADERA, CHIH","count":7,"rate":296.3939},{"long":-106.306,"lat":23.4684,"state_code":25,"mun_code":12,"date":"2017-02-01","name":"MAZATLAN, SIN","count":22,"rate":58.1021},{"long":-107.7646,"lat":24.7233,"state_code":25,"mun_code":18,"date":"2017-02-01","name":"NAVOLATO, SIN","count":22,"rate":198.0959},{"long":-99.5974,"lat":18.52,"state_code":12,"mun_code":55,"date":"2017-02-01","name":"TAXCO DE ALARCON, GRO","count":11,"rate":129.6499},{"long":-104.8405,"lat":21.6216,"state_code":18,"mun_code":17,"date":"2017-02-01","name":"TEPIC, NAY","count":6,"rate":17.4205},{"long":-103.2143,"lat":20.6201,"state_code":14,"mun_code":101,"date":"2017-02-01","name":"TONALA, JAL","count":15,"rate":35.4107}],"rvcv":[{"long":-98.0531,"lat":19.0473,"state_code":21,"mun_code":15,"date":"2017-02-01","name":"AMOZOC, PUE","count":12,"rate":127.865},{"long":-102.2707,"lat":18.3641,"state_code":16,"mun_code":10,"date":"2017-02-01","name":"ARTEAGA, MICH","count":8,"rate":461.8227},{"long":-97.4281,"lat":18.7332,"state_code":21,"mun_code":99,"date":"2017-02-01","name":"CAÑADA MORELOS, PUE","count":5,"rate":317.7742},{"long":-100.7879,"lat":20.5376,"state_code":11,"mun_code":7,"date":"2017-02-01","name":"CELAYA, GTO","count":24,"rate":61.0062},{"long":-98.2917,"lat":19.1352,"state_code":21,"mun_code":34,"date":"2017-02-01","name":"CORONANGO, PUE","count":5,"rate":164.2078},{"long":-103.2455,"lat":20.539,"state_code":14,"mun_code":70,"date":"2017-02-01","name":"EL SALTO, JAL","count":9,"rate":71.679},{"long":-105.6858,"lat":22.7241,"state_code":25,"mun_code":9,"date":"2017-02-01","name":"ESCUINAPA, SIN","count":21,"rate":453.332},{"long":-97.3646,"lat":18.859,"state_code":21,"mun_code":63,"date":"2017-02-01","name":"ESPERANZA, PUE","count":6,"rate":528.0141},{"long":-103.3358,"lat":20.676,"state_code":14,"mun_code":39,"date":"2017-02-01","name":"GUADALAJARA, JAL","count":168,"rate":142.1995},{"long":-111.4735,"lat":29.0237,"state_code":26,"mun_code":30,"date":"2017-02-01","name":"HERMOSILLO, SON","count":18,"rate":25.9748},{"long":-99.0889,"lat":19.7387,"state_code":15,"mun_code":44,"date":"2017-02-01","name":"JALTENCO, MEX","count":6,"rate":269.1468},{"long":-102.0723,"lat":20.3056,"state_code":16,"mun_code":69,"date":"2017-02-01","name":"LA PIEDAD, MICH","count":8,"rate":96.6893},{"long":-107.7646,"lat":24.7233,"state_code":25,"mun_code":18,"date":"2017-02-01","name":"NAVOLATO, SIN","count":22,"rate":198.0959},{"long":-97.3375,"lat":18.6275,"state_code":21,"mun_code":103,"date":"2017-02-01","name":"NICOLAS BRAVO, PUE","count":5,"rate":981.7611},{"long":-91.3375,"lat":16.7021,"state_code":7,"mun_code":59,"date":"2017-02-01","name":"OCOSINGO, CHPS","count":7,"rate":40.1813},{"long":-97.2863,"lat":20.4109,"state_code":30,"mun_code":124,"date":"2017-02-01","name":"PAPANTLA, VER","count":5,"rate":38.8983},{"long":-101.8158,"lat":20.4016,"state_code":11,"mun_code":23,"date":"2017-02-01","name":"PENJAMO, GTO","count":6,"rate":48.815},{"long":-99.2857,"lat":18.5778,"state_code":17,"mun_code":17,"date":"2017-02-01","name":"PUENTE DE IXTLA, MOR","count":5,"rate":95.3652},{"long":-98.4285,"lat":19.269,"state_code":21,"mun_code":132,"date":"2017-02-01","name":"SAN MARTIN TEXMELUCAN, PUE","count":6,"rate":49.8072},{"long":-100.2707,"lat":25.7361,"state_code":19,"mun_code":46,"date":"2017-02-01","name":"SAN NICOLAS DE LOS GARZA, NL","count":7,"rate":19.7943},{"long":-103.3478,"lat":20.5914,"state_code":14,"mun_code":98,"date":"2017-02-01","name":"SAN PEDRO TLAQUEPAQUE, JAL","count":39,"rate":75.4342},{"long":-97.4451,"lat":18.4613,"state_code":21,"mun_code":156,"date":"2017-02-01","name":"TEHUACAN, PUE","count":22,"rate":94.5103},{"long":-99.1682,"lat":19.7622,"state_code":15,"mun_code":91,"date":"2017-02-01","name":"TEOLOYUCAN, MEX","count":16,"rate":325.0396},{"long":-97.8762,"lat":19.0119,"state_code":21,"mun_code":164,"date":"2017-02-01","name":"TEPEACA, PUE","count":9,"rate":139.4081},{"long":-99.1052,"lat":18.9813,"state_code":17,"mun_code":20,"date":"2017-02-01","name":"TEPOZTLAN, MOR","count":7,"rate":191.8854},{"long":-96.2865,"lat":18.5498,"state_code":30,"mun_code":174,"date":"2017-02-01","name":"TIERRA BLANCA, VER","count":14,"rate":177.4395},{"long":-116.82,"lat":32.4041,"state_code":2,"mun_code":4,"date":"2017-02-01","name":"TIJUANA, BC","count":97,"rate":70.6573},{"long":-103.4174,"lat":20.4787,"state_code":14,"mun_code":97,"date":"2017-02-01","name":"TLAJOMULCO DE ZUÑIGA, JAL","count":36,"rate":82.0235},{"long":-99.1701,"lat":19.5427,"state_code":15,"mun_code":104,"date":"2017-02-01","name":"TLALNEPANTLA DE BAZ, MEX","count":239,"rate":432.1917},{"long":-103.2143,"lat":20.6201,"state_code":14,"mun_code":101,"date":"2017-02-01","name":"TONALA, JAL","count":48,"rate":113.3144},{"long":-98.3509,"lat":20.1236,"state_code":13,"mun_code":77,"date":"2017-02-01","name":"TULANCINGO DE BRAVO, HGO","count":16,"rate":121.3775},{"long":-97.4118,"lat":20.9348,"state_code":30,"mun_code":189,"date":"2017-02-01","name":"TUXPAN, VER","count":5,"rate":42.2429},{"long":-101.8279,"lat":19.8241,"state_code":16,"mun_code":107,"date":"2017-02-01","name":"ZACAPU, MICH","count":5,"rate":84.8141},{"long":-103.4942,"lat":20.7949,"state_code":14,"mun_code":120,"date":"2017-02-01","name":"ZAPOPAN, JAL","count":94,"rate":88.4636},{"long":-99.0718,"lat":19.8091,"state_code":15,"mun_code":120,"date":"2017-02-01","name":"ZUMPANGO, MEX","count":25,"rate":165.8781}],"rvsv":[{"long":-97.9398,"lat":19.1033,"state_code":21,"mun_code":1,"date":"2017-02-01","name":"ACAJETE, PUE","count":7,"rate":134.2923},{"long":-109.1332,"lat":25.8956,"state_code":25,"mun_code":1,"date":"2017-02-01","name":"AHOME, SIN","count":30,"rate":84.1174},{"long":-98.0531,"lat":19.0473,"state_code":21,"mun_code":15,"date":"2017-02-01","name":"AMOZOC, PUE","count":18,"rate":191.7975},{"long":-92.9706,"lat":16.5981,"state_code":7,"mun_code":27,"date":"2017-02-01","name":"CHIAPA DE CORZO, CHPS","count":7,"rate":88.6097},{"long":-93.3367,"lat":18.2869,"state_code":27,"mun_code":5,"date":"2017-02-01","name":"COMALCALCO, TAB","count":33,"rate":205.2386},{"long":-99.2252,"lat":19.6545,"state_code":15,"mun_code":121,"date":"2017-02-01","name":"CUAUTITLAN IZCALLI, MEX","count":40,"rate":90.6246},{"long":-98.2561,"lat":19.1167,"state_code":21,"mun_code":41,"date":"2017-02-01","name":"CUAUTLANCINGO, PUE","count":11,"rate":141.5092},{"long":-100.6598,"lat":25.809,"state_code":19,"mun_code":18,"date":"2017-02-01","name":"GARCIA, NL","count":13,"rate":84.4147},{"long":-93.0839,"lat":18.2133,"state_code":27,"mun_code":10,"date":"2017-02-01","name":"JALPA DE MENDEZ, TAB","count":14,"rate":198.8884},{"long":-102.4456,"lat":21.9321,"state_code":1,"mun_code":5,"date":"2017-02-01","name":"JESUS MARIA, AGS","count":8,"rate":89.8928},{"long":-100.1215,"lat":25.6141,"state_code":19,"mun_code":31,"date":"2017-02-01","name":"JUAREZ, NL","count":15,"rate":54.7753},{"long":-92.4586,"lat":17.845,"state_code":27,"mun_code":12,"date":"2017-02-01","name":"MACUSPANA, TAB","count":19,"rate":150.8579},{"long":-92.9486,"lat":18.1879,"state_code":27,"mun_code":13,"date":"2017-02-01","name":"NACAJUCA, TAB","count":20,"rate":187.8381},{"long":-98.3528,"lat":16.6616,"state_code":12,"mun_code":46,"date":"2017-02-01","name":"OMETEPEC, GRO","count":10,"rate":195.6947},{"long":-116.8907,"lat":32.2529,"state_code":2,"mun_code":5,"date":"2017-02-01","name":"PLAYAS DE ROSARITO, BC","count":87,"rate":1032.6355},{"long":-98.1755,"lat":19.0086,"state_code":21,"mun_code":114,"date":"2017-02-01","name":"PUEBLA, PUE","count":206,"rate":159.8399},{"long":-102.2944,"lat":21.2697,"state_code":14,"mun_code":73,"date":"2017-02-01","name":"SAN JUAN DE LOS LAGOS, JAL","count":5,"rate":88.0084},{"long":-102.1635,"lat":20.9977,"state_code":14,"mun_code":74,"date":"2017-02-01","name":"SAN JULIAN, JAL","count":5,"rate":359.8014},{"long":-103.9051,"lat":20.4499,"state_code":14,"mun_code":77,"date":"2017-02-01","name":"SAN MARTIN HIDALGO, JAL","count":6,"rate":272.4837},{"long":-98.1404,"lat":19.1561,"state_code":29,"mun_code":25,"date":"2017-02-01","name":"SAN PABLO DEL MONTE, TLAX","count":17,"rate":281.5554},{"long":-100.4839,"lat":25.5746,"state_code":19,"mun_code":48,"date":"2017-02-01","name":"SANTA CATARINA, NL","count":31,"rate":136.741},{"long":-97.4451,"lat":18.4613,"state_code":21,"mun_code":156,"date":"2017-02-01","name":"TEHUACAN, PUE","count":71,"rate":305.0106},{"long":-97.8762,"lat":19.0119,"state_code":21,"mun_code":164,"date":"2017-02-01","name":"TEPEACA, PUE","count":23,"rate":356.2651},{"long":-116.82,"lat":32.4041,"state_code":2,"mun_code":4,"date":"2017-02-01","name":"TIJUANA, BC","count":883,"rate":643.1999},{"long":-95.623,"lat":18.5337,"state_code":30,"mun_code":178,"date":"2017-02-01","name":"TLACOTALPAN, VER","count":6,"rate":583.8406},{"long":-97.6289,"lat":18.6557,"state_code":21,"mun_code":177,"date":"2017-02-01","name":"TLACOTEPEC DE BENITO JUAREZ, PUE","count":8,"rate":195.84},{"long":-98.3509,"lat":20.1236,"state_code":13,"mun_code":77,"date":"2017-02-01","name":"TULANCINGO DE BRAVO, HGO","count":29,"rate":219.9968},{"long":-99.1453,"lat":19.6262,"state_code":15,"mun_code":109,"date":"2017-02-01","name":"TULTITLAN, MEX","count":40,"rate":85.061},{"long":-101.2706,"lat":20.3783,"state_code":11,"mun_code":42,"date":"2017-02-01","name":"VALLE DE SANTIAGO, GTO","count":23,"rate":197.6066},{"long":-99.3593,"lat":19.1652,"state_code":15,"mun_code":43,"date":"2017-02-01","name":"XALATLACO, MEX","count":5,"rate":189.4992},{"long":-103.0488,"lat":20.636,"state_code":14,"mun_code":124,"date":"2017-02-01","name":"ZAPOTLANEJO, JAL","count":11,"rate":198.6942}],"lesions":[{"long":-104.0805,"lat":20.5417,"state_code":14,"mun_code":6,"date":"2017-02-01","name":"AMECA, JAL","count":20,"rate":420.4566},{"long":-98.6765,"lat":20.3548,"state_code":13,"mun_code":12,"date":"2017-02-01","name":"ATOTONILCO EL GRANDE, HGO","count":14,"rate":611.7039},{"long":-99.1611,"lat":19.3806,"state_code":9,"mun_code":14,"date":"2017-02-01","name":"BENITO JUAREZ, CDMX","count":50,"rate":162.5482},{"long":-100.6737,"lat":23.9304,"state_code":24,"mun_code":7,"date":"2017-02-01","name":"CEDRAL, SLP","count":5,"rate":320.5311},{"long":-103.8245,"lat":20.3904,"state_code":14,"mun_code":24,"date":"2017-02-01","name":"COCULA, JAL","count":5,"rate":232.7759},{"long":-103.6327,"lat":19.1161,"state_code":6,"mun_code":2,"date":"2017-02-01","name":"COLIMA, COL","count":27,"rate":210.447},{"long":-99.2366,"lat":19.0576,"state_code":17,"mun_code":9,"date":"2017-02-01","name":"HUITZILAC, MOR","count":10,"rate":653.609},{"long":-92.5469,"lat":15.097,"state_code":7,"mun_code":40,"date":"2017-02-01","name":"HUIXTLA, CHPS","count":7,"rate":160.6999},{"long":-97.029,"lat":18.8506,"state_code":30,"mun_code":85,"date":"2017-02-01","name":"IXTACZOQUITLAN, VER","count":6,"rate":110.0594},{"long":-102.316,"lat":19.9349,"state_code":16,"mun_code":43,"date":"2017-02-01","name":"JACONA, MICH","count":20,"rate":383.2576},{"long":-104.3027,"lat":19.1495,"state_code":6,"mun_code":7,"date":"2017-02-01","name":"MANZANILLO, COL","count":30,"rate":206.2246},{"long":-98.8461,"lat":24.0226,"state_code":28,"mun_code":30,"date":"2017-02-01","name":"PADILLA, TAM","count":5,"rate":417.7381},{"long":-101.599,"lat":19.4945,"state_code":16,"mun_code":66,"date":"2017-02-01","name":"PATZCUARO, MICH","count":11,"rate":150.4944},{"long":-98.3757,"lat":21.2948,"state_code":30,"mun_code":129,"date":"2017-02-01","name":"PLATON SANCHEZ, VER","count":6,"rate":426.5335},{"long":-98.1911,"lat":20.4685,"state_code":13,"mun_code":53,"date":"2017-02-01","name":"SAN BARTOLO TUTOTEPEC, HGO","count":5,"rate":351.3841},{"long":-101.452,"lat":19.2548,"state_code":16,"mun_code":82,"date":"2017-02-01","name":"TACAMBARO, MICH","count":8,"rate":133.4473},{"long":-101.8951,"lat":19.3293,"state_code":16,"mun_code":87,"date":"2017-02-01","name":"TARETAN, MICH","count":6,"rate":536.3475},{"long":-102.5545,"lat":21.4804,"state_code":14,"mun_code":91,"date":"2017-02-01","name":"TEOCALTICHE, JAL","count":6,"rate":178.1549},{"long":-99.1082,"lat":18.705,"state_code":17,"mun_code":24,"date":"2017-02-01","name":"TLALTIZAPAN DE ZAPATA, MOR","count":12,"rate":289.4449},{"long":-99.0747,"lat":18.4991,"state_code":17,"mun_code":25,"date":"2017-02-01","name":"TLAQUILTENANGO, MOR","count":6,"rate":227.3187},{"long":-103.8444,"lat":19.3096,"state_code":6,"mun_code":10,"date":"2017-02-01","name":"VILLA DE ALVAREZ, COL","count":25,"rate":226.406},{"long":-99.2068,"lat":18.6547,"state_code":17,"mun_code":31,"date":"2017-02-01","name":"ZACATEPEC, MOR","count":8,"rate":275.4831},{"long":-102.2641,"lat":20.033,"state_code":16,"mun_code":108,"date":"2017-02-01","name":"ZAMORA, MICH","count":54,"rate":351.2152}],"ext":[{"long":-100.1873,"lat":25.7923,"state_code":19,"mun_code":6,"date":"2017-02-01","name":"APODACA, NL","count":12,"rate":24.8297},{"long":-92.8602,"lat":18.0091,"state_code":27,"mun_code":4,"date":"2017-02-01","name":"CENTRO, TAB","count":16,"rate":29.2429},{"long":-99.5821,"lat":18.2268,"state_code":12,"mun_code":35,"date":"2017-02-01","name":"IGUALA DE LA INDEPENDENCIA, GRO","count":7,"rate":59.6267},{"long":-110.6633,"lat":24.1905,"state_code":3,"mun_code":3,"date":"2017-02-01","name":"LA PAZ, BCS","count":14,"rate":59.4246},{"long":-109.7533,"lat":23.2766,"state_code":3,"mun_code":8,"date":"2017-02-01","name":"LOS CABOS, BCS","count":14,"rate":55.4578},{"long":-92.9486,"lat":18.1879,"state_code":27,"mun_code":13,"date":"2017-02-01","name":"NACAJUCA, TAB","count":7,"rate":65.7433},{"long":-97.1744,"lat":20.0236,"state_code":30,"mun_code":183,"date":"2017-02-01","name":"TLAPACOYAN, VER","count":7,"rate":146.0186},{"long":-102.6781,"lat":22.7357,"state_code":32,"mun_code":56,"date":"2017-02-01","name":"ZACATECAS, ZAC","count":7,"rate":61.3857}]}
