{"hom":[{"long":-98.4523,"lat":18.8991,"state_code":21,"mun_code":19,"date":"2016-09-01","name":"ATLIXCO, PUE","count":6,"rate":53.0219},{"long":-94.3974,"lat":18.1326,"state_code":30,"mun_code":39,"date":"2016-09-01","name":"COATZACOALCOS, VER","count":6,"rate":21.793},{"long":-94.5681,"lat":18.0162,"state_code":30,"mun_code":48,"date":"2016-09-01","name":"COSOLEACAQUE, VER","count":5,"rate":46.3027},{"long":-114.9585,"lat":30.0362,"state_code":2,"mun_code":1,"date":"2016-09-01","name":"ENSENADA, BC","count":11,"rate":24.9249},{"long":-105.6858,"lat":22.7241,"state_code":25,"mun_code":9,"date":"2016-09-01","name":"ESCUINAPA, SIN","count":6,"rate":121.3122},{"long":-102.4076,"lat":22.7802,"state_code":32,"mun_code":17,"date":"2016-09-01","name":"GUADALUPE, ZAC","count":11,"rate":71.5719},{"long":-102.5233,"lat":20.3638,"state_code":14,"mun_code":18,"date":"2016-09-01","name":"LA BARCA, JAL","count":6,"rate":104.4523},{"long":-102.0723,"lat":20.3056,"state_code":16,"mun_code":69,"date":"2016-09-01","name":"LA PIEDAD, MICH","count":5,"rate":56.5472},{"long":-93.9572,"lat":17.5358,"state_code":30,"mun_code":61,"date":"2016-09-01","name":"LAS CHOAPAS, VER","count":5,"rate":72.1327},{"long":-102.3751,"lat":18.0885,"state_code":16,"mun_code":52,"date":"2016-09-01","name":"LAZARO CARDENAS, MICH","count":12,"rate":75.1487},{"long":-94.3887,"lat":17.7114,"state_code":30,"mun_code":108,"date":"2016-09-01","name":"MINATITLAN, VER","count":5,"rate":36.2954},{"long":-97.1048,"lat":18.8559,"state_code":30,"mun_code":118,"date":"2016-09-01","name":"ORIZABA, VER","count":5,"rate":47.8477},{"long":-97.2863,"lat":20.4109,"state_code":30,"mun_code":124,"date":"2016-09-01","name":"PAPANTLA, VER","count":5,"rate":36.3875},{"long":-116.8907,"lat":32.2529,"state_code":2,"mun_code":5,"date":"2016-09-01","name":"PLAYAS DE ROSARITO, BC","count":13,"rate":145.0407},{"long":-97.4385,"lat":20.53,"state_code":30,"mun_code":131,"date":"2016-09-01","name":"POZA RICA DE HIDALGO, VER","count":10,"rate":58.6522},{"long":-102.7663,"lat":20.0551,"state_code":16,"mun_code":76,"date":"2016-09-01","name":"SAHUAYO, MICH","count":11,"rate":164.4225},{"long":-116.82,"lat":32.4041,"state_code":2,"mun_code":4,"date":"2016-09-01","name":"TIJUANA, BC","count":80,"rate":54.7184},{"long":-99.3675,"lat":17.5994,"state_code":12,"mun_code":61,"date":"2016-09-01","name":"TIXTLA DE GUERRERO, GRO","count":7,"rate":198.1599},{"long":-99.1701,"lat":19.5427,"state_code":15,"mun_code":104,"date":"2016-09-01","name":"TLALNEPANTLA DE BAZ, MEX","count":10,"rate":16.9389},{"long":-102.1056,"lat":19.4436,"state_code":16,"mun_code":102,"date":"2016-09-01","name":"URUAPAN, MICH","count":6,"rate":21.0448},{"long":-103.7528,"lat":22.779,"state_code":32,"mun_code":49,"date":"2016-09-01","name":"VALPARAISO, ZAC","count":6,"rate":212.9673}],"rvcv":[{"long":-102.4233,"lat":18.9382,"state_code":16,"mun_code":6,"date":"2016-09-01","name":"APATZINGAN, MICH","count":25,"rate":230.7053},{"long":-109.8868,"lat":27.7928,"state_code":26,"mun_code":18,"date":"2016-09-01","name":"CAJEME, SON","count":8,"rate":21.1127},{"long":-94.5681,"lat":18.0162,"state_code":30,"mun_code":48,"date":"2016-09-01","name":"COSOLEACAQUE, VER","count":28,"rate":259.2953},{"long":-99.5821,"lat":18.2268,"state_code":12,"mun_code":35,"date":"2016-09-01","name":"IGUALA DE LA INDEPENDENCIA, GRO","count":19,"rate":151.4196},{"long":-101.855,"lat":18.0167,"state_code":12,"mun_code":68,"date":"2016-09-01","name":"LA UNION DE ISIDORO MONTES DE OCA, GRO","count":10,"rate":457.8755},{"long":-109.4027,"lat":27.0781,"state_code":26,"mun_code":42,"date":"2016-09-01","name":"NAVOJOA, SON","count":5,"rate":34.3731},{"long":-116.8907,"lat":32.2529,"state_code":2,"mun_code":5,"date":"2016-09-01","name":"PLAYAS DE ROSARITO, BC","count":5,"rate":55.7849},{"long":-97.5302,"lat":20.6604,"state_code":30,"mun_code":175,"date":"2016-09-01","name":"TIHUATLAN, VER","count":10,"rate":124.117},{"long":-96.2217,"lat":19.1858,"state_code":30,"mun_code":193,"date":"2016-09-01","name":"VERACRUZ, VER","count":36,"rate":73.167},{"long":-103.4942,"lat":20.7949,"state_code":14,"mun_code":120,"date":"2016-09-01","name":"ZAPOPAN, JAL","count":88,"rate":77.6597},{"long":-101.909,"lat":19.4285,"state_code":16,"mun_code":111,"date":"2016-09-01","name":"ZIRACUARETIRO, MICH","count":6,"rate":443.6503}],"rvsv":[{"long":-102.3006,"lat":20.7664,"state_code":14,"mun_code":8,"date":"2016-09-01","name":"ARANDAS, JAL","count":8,"rate":118.2091},{"long":-92.5862,"lat":18.3614,"state_code":27,"mun_code":3,"date":"2016-09-01","name":"CENTLA, TAB","count":6,"rate":66.6605},{"long":-92.9706,"lat":16.5981,"state_code":7,"mun_code":27,"date":"2016-09-01","name":"CHIAPA DE CORZO, CHPS","count":8,"rate":95.0439},{"long":-97.0895,"lat":19.0533,"state_code":30,"mun_code":47,"date":"2016-09-01","name":"COSCOMATEPEC, VER","count":7,"rate":149.6579},{"long":-93.2207,"lat":18.0766,"state_code":27,"mun_code":6,"date":"2016-09-01","name":"CUNDUACAN, TAB","count":27,"rate":238.6318},{"long":-98.4891,"lat":20.9975,"state_code":13,"mun_code":26,"date":"2016-09-01","name":"HUAZALINGO, HGO","count":7,"rate":629.4021},{"long":-93.6998,"lat":17.8264,"state_code":27,"mun_code":8,"date":"2016-09-01","name":"HUIMANGUILLO, TAB","count":39,"rate":246.6143},{"long":-93.0839,"lat":18.2133,"state_code":27,"mun_code":10,"date":"2016-09-01","name":"JALPA DE MENDEZ, TAB","count":6,"rate":79.8864},{"long":-101.8797,"lat":21.494,"state_code":14,"mun_code":53,"date":"2016-09-01","name":"LAGOS DE MORENO, JAL","count":36,"rate":255.5487},{"long":-92.4586,"lat":17.845,"state_code":27,"mun_code":12,"date":"2016-09-01","name":"MACUSPANA, TAB","count":17,"rate":126.4395},{"long":-92.9486,"lat":18.1879,"state_code":27,"mun_code":13,"date":"2016-09-01","name":"NACAJUCA, TAB","count":13,"rate":114.6789},{"long":-91.8127,"lat":17.4441,"state_code":7,"mun_code":65,"date":"2016-09-01","name":"PALENQUE, CHPS","count":13,"rate":125.1283},{"long":-96.663,"lat":18.9427,"state_code":30,"mun_code":125,"date":"2016-09-01","name":"PASO DEL MACHO, VER","count":9,"rate":350.013},{"long":-96.6918,"lat":17.0241,"state_code":20,"mun_code":107,"date":"2016-09-01","name":"SAN ANTONIO DE LA CAL, OAX","count":5,"rate":225.1661},{"long":-102.229,"lat":22.0331,"state_code":1,"mun_code":11,"date":"2016-09-01","name":"SAN FRANCISCO DE LOS ROMO, AGS","count":10,"rate":290.1424},{"long":-102.3796,"lat":20.9926,"state_code":14,"mun_code":78,"date":"2016-09-01","name":"SAN MIGUEL EL ALTO, JAL","count":5,"rate":171.1938},{"long":-98.0188,"lat":17.1942,"state_code":20,"mun_code":469,"date":"2016-09-01","name":"SANTIAGO JUXTLAHUACA, OAX","count":5,"rate":180.6902},{"long":-100.8551,"lat":22.2716,"state_code":24,"mun_code":35,"date":"2016-09-01","name":"SOLEDAD DE GRACIANO SANCHEZ, SLP","count":30,"rate":117.6782},{"long":-97.4451,"lat":18.4613,"state_code":21,"mun_code":156,"date":"2016-09-01","name":"TEHUACAN, PUE","count":55,"rate":221.4765},{"long":-99.2933,"lat":20.1789,"state_code":13,"mun_code":67,"date":"2016-09-01","name":"TEZONTEPEC DE ALDAMA, HGO","count":7,"rate":159.6321},{"long":-93.6905,"lat":15.997,"state_code":7,"mun_code":97,"date":"2016-09-01","name":"TONALA, CHPS","count":5,"rate":65.3317},{"long":-98.8553,"lat":19.9926,"state_code":13,"mun_code":82,"date":"2016-09-01","name":"ZAPOTLAN DE JUAREZ, HGO","count":5,"rate":311.9638},{"long":-98.6723,"lat":19.9231,"state_code":13,"mun_code":83,"date":"2016-09-01","name":"ZEMPOALA, HGO","count":12,"rate":300.1751}],"lesions":[{"long":-97.6914,"lat":17.2314,"state_code":20,"mun_code":397,"date":"2016-09-01","name":"HEROICA CIUDAD DE TLAXIACO, OAX","count":6,"rate":172.4138},{"long":-101.1051,"lat":18.6539,"state_code":16,"mun_code":38,"date":"2016-09-01","name":"HUETAMO, MICH","count":10,"rate":283.1925},{"long":-102.0723,"lat":20.3056,"state_code":16,"mun_code":69,"date":"2016-09-01","name":"LA PIEDAD, MICH","count":16,"rate":180.9511},{"long":-94.991,"lat":17.1556,"state_code":20,"mun_code":57,"date":"2016-09-01","name":"MATIAS ROMERO AVENDAÃ‘O, OAX","count":5,"rate":155.7228},{"long":-103.0725,"lat":19.8942,"state_code":14,"mun_code":59,"date":"2016-09-01","name":"MAZAMITLA, JAL","count":6,"rate":490.6303},{"long":-98.7822,"lat":20.1021,"state_code":13,"mun_code":48,"date":"2016-09-01","name":"PACHUCA DE SOTO, HGO","count":183,"rate":803.1218},{"long":-98.1214,"lat":16.2924,"state_code":20,"mun_code":482,"date":"2016-09-01","name":"SANTIAGO PINOTEPA NACIONAL, OAX","count":5,"rate":108.7903},{"long":-95.3916,"lat":16.2217,"state_code":20,"mun_code":515,"date":"2016-09-01","name":"SANTO DOMINGO TEHUANTEPEC, OAX","count":12,"rate":219.3517},{"long":-100.8551,"lat":22.2716,"state_code":24,"mun_code":35,"date":"2016-09-01","name":"SOLEDAD DE GRACIANO SANCHEZ, SLP","count":63,"rate":247.1242},{"long":-106.712,"lat":24.9468,"state_code":10,"mun_code":34,"date":"2016-09-01","name":"TAMAZULA, DGO","count":5,"rate":216.4502},{"long":-99.3758,"lat":20.5423,"state_code":13,"mun_code":58,"date":"2016-09-01","name":"TASQUILLO, HGO","count":5,"rate":332.6127},{"long":-103.0711,"lat":20.1196,"state_code":14,"mun_code":96,"date":"2016-09-01","name":"TIZAPAN EL ALTO, JAL","count":5,"rate":267.3797},{"long":-100.9815,"lat":21.8518,"state_code":24,"mun_code":50,"date":"2016-09-01","name":"VILLA DE REYES, SLP","count":17,"rate":396.4552}],"ext":[{"long":-98.7847,"lat":21.2413,"state_code":24,"mun_code":37,"date":"2016-09-01","name":"TAMAZUNCHALE, SLP","count":5,"rate":59.072}]}
