{"hom":[{"long":-95.0326,"lat":18.0367,"state_code":30,"mun_code":3,"date":"2016-07-01","name":"ACAYUCAN, VER","count":8,"rate":104.979},{"long":-102.4233,"lat":18.9382,"state_code":16,"mun_code":6,"date":"2016-07-01","name":"APATZINGAN, MICH","count":20,"rate":178.799},{"long":-102.0071,"lat":19.1588,"state_code":16,"mun_code":33,"date":"2016-07-01","name":"GABRIEL ZAMORA, MICH","count":5,"rate":259.3903},{"long":-110.6259,"lat":28.1426,"state_code":26,"mun_code":29,"date":"2016-07-01","name":"GUAYMAS, SON","count":8,"rate":55.696},{"long":-102.3751,"lat":18.0885,"state_code":16,"mun_code":52,"date":"2016-07-01","name":"LAZARO CARDENAS, MICH","count":16,"rate":97.0892},{"long":-97.4385,"lat":20.53,"state_code":30,"mun_code":131,"date":"2016-07-01","name":"POZA RICA DE HIDALGO, VER","count":9,"rate":51.1356}],"rvcv":[{"long":-100.6217,"lat":20.5755,"state_code":11,"mun_code":5,"date":"2016-07-01","name":"APASEO EL GRANDE, GTO","count":6,"rate":75.2846},{"long":-100.3421,"lat":17.3328,"state_code":12,"mun_code":11,"date":"2016-07-01","name":"ATOYAC DE ALVAREZ, GRO","count":7,"rate":128.3396},{"long":-99.0432,"lat":19.5728,"state_code":15,"mun_code":33,"date":"2016-07-01","name":"ECATEPEC DE MORELOS, MEX","count":239,"rate":155.8357},{"long":-99.5821,"lat":18.2268,"state_code":12,"mun_code":35,"date":"2016-07-01","name":"IGUALA DE LA INDEPENDENCIA, GRO","count":21,"rate":162.117},{"long":-101.855,"lat":18.0167,"state_code":12,"mun_code":68,"date":"2016-07-01","name":"LA UNION DE ISIDORO MONTES DE OCA, GRO","count":8,"rate":354.606},{"long":-102.3751,"lat":18.0885,"state_code":16,"mun_code":52,"date":"2016-07-01","name":"LAZARO CARDENAS, MICH","count":31,"rate":188.1104},{"long":-92.8916,"lat":15.461,"state_code":7,"mun_code":51,"date":"2016-07-01","name":"MAPASTEPEC, CHPS","count":5,"rate":117.1719},{"long":-98.3528,"lat":16.6616,"state_code":12,"mun_code":46,"date":"2016-07-01","name":"OMETEPEC, GRO","count":5,"rate":88.7321},{"long":-101.8951,"lat":19.3293,"state_code":16,"mun_code":87,"date":"2016-07-01","name":"TARETAN, MICH","count":6,"rate":485.9294},{"long":-97.7312,"lat":18.8593,"state_code":21,"mun_code":154,"date":"2016-07-01","name":"TECAMACHALCO, PUE","count":8,"rate":117.3302},{"long":-99.3635,"lat":19.9027,"state_code":13,"mun_code":63,"date":"2016-07-01","name":"TEPEJI DEL RIO DE OCAMPO, HGO","count":12,"rate":156.9294},{"long":-116.82,"lat":32.4041,"state_code":2,"mun_code":4,"date":"2016-07-01","name":"TIJUANA, BC","count":43,"rate":28.5315},{"long":-93.1373,"lat":16.7394,"state_code":7,"mun_code":101,"date":"2016-07-01","name":"TUXTLA GUTIERREZ, CHPS","count":18,"rate":33.6177},{"long":-102.1056,"lat":19.4436,"state_code":16,"mun_code":102,"date":"2016-07-01","name":"URUAPAN, MICH","count":52,"rate":176.7348},{"long":-102.2641,"lat":20.033,"state_code":16,"mun_code":108,"date":"2016-07-01","name":"ZAMORA, MICH","count":7,"rate":41.2704},{"long":-101.4342,"lat":17.8201,"state_code":12,"mun_code":38,"date":"2016-07-01","name":"ZIHUATANEJO DE AZUETA, GRO","count":46,"rate":410.1987}],"rvsv":[{"long":-98.0531,"lat":19.0473,"state_code":21,"mun_code":15,"date":"2016-07-01","name":"AMOZOC, PUE","count":7,"rate":67.9833},{"long":-101.7067,"lat":19.1563,"state_code":16,"mun_code":9,"date":"2016-07-01","name":"ARIO, MICH","count":6,"rate":189.2482},{"long":-91.4832,"lat":18.524,"state_code":4,"mun_code":3,"date":"2016-07-01","name":"CARMEN, CAMP","count":18,"rate":83.2602},{"long":-103.8245,"lat":20.3904,"state_code":14,"mun_code":24,"date":"2016-07-01","name":"COCULA, JAL","count":12,"rate":506.5791},{"long":-98.2917,"lat":19.1352,"state_code":21,"mun_code":34,"date":"2016-07-01","name":"CORONANGO, PUE","count":5,"rate":149.3698},{"long":-101.1051,"lat":18.6539,"state_code":16,"mun_code":38,"date":"2016-07-01","name":"HUETAMO, MICH","count":7,"rate":191.899},{"long":-93.6998,"lat":17.8264,"state_code":27,"mun_code":8,"date":"2016-07-01","name":"HUIMANGUILLO, TAB","count":12,"rate":73.5487},{"long":-102.316,"lat":19.9349,"state_code":16,"mun_code":43,"date":"2016-07-01","name":"JACONA, MICH","count":11,"rate":191.0645},{"long":-92.3315,"lat":15.3138,"state_code":7,"mun_code":57,"date":"2016-07-01","name":"MOTOZINTLA, CHPS","count":8,"rate":118.667},{"long":-92.9486,"lat":18.1879,"state_code":27,"mun_code":13,"date":"2016-07-01","name":"NACAJUCA, TAB","count":10,"rate":85.5866},{"long":-98.2932,"lat":19.0236,"state_code":21,"mun_code":119,"date":"2016-07-01","name":"SAN ANDRES CHOLULA, PUE","count":16,"rate":156.9338},{"long":-102.229,"lat":22.0331,"state_code":1,"mun_code":11,"date":"2016-07-01","name":"SAN FRANCISCO DE LOS ROMO, AGS","count":8,"rate":225.2472},{"long":-98.1404,"lat":19.1561,"state_code":29,"mun_code":25,"date":"2016-07-01","name":"SAN PABLO DEL MONTE, TLAX","count":16,"rate":241.4043},{"long":-98.3431,"lat":19.073,"state_code":21,"mun_code":140,"date":"2016-07-01","name":"SAN PEDRO CHOLULA, PUE","count":15,"rate":133.7697},{"long":-99.2722,"lat":18.8425,"state_code":17,"mun_code":18,"date":"2016-07-01","name":"TEMIXCO, MOR","count":29,"rate":284.8563},{"long":-102.7208,"lat":20.8148,"state_code":14,"mun_code":93,"date":"2016-07-01","name":"TEPATITLAN DE MORELOS, JAL","count":28,"rate":220.6218},{"long":-93.6905,"lat":15.997,"state_code":7,"mun_code":97,"date":"2016-07-01","name":"TONALA, CHPS","count":5,"rate":63.3159},{"long":-103.7089,"lat":20.3896,"state_code":14,"mun_code":114,"date":"2016-07-01","name":"VILLA CORONA, JAL","count":5,"rate":314.9689}],"lesions":[{"long":-103.6088,"lat":20.4285,"state_code":14,"mun_code":2,"date":"2016-07-01","name":"ACATLAN DE JUAREZ, JAL","count":8,"rate":379.6307},{"long":-109.1974,"lat":31.1044,"state_code":26,"mun_code":2,"date":"2016-07-01","name":"AGUA PRIETA, SON","count":10,"rate":130.1166},{"long":-102.5396,"lat":20.5476,"state_code":14,"mun_code":13,"date":"2016-07-01","name":"ATOTONILCO EL ALTO, JAL","count":15,"rate":275.7929},{"long":-110.1591,"lat":27.7439,"state_code":26,"mun_code":12,"date":"2016-07-01","name":"BACUM, SON","count":7,"rate":324.1241},{"long":-112.5395,"lat":30.825,"state_code":26,"mun_code":17,"date":"2016-07-01","name":"CABORCA, SON","count":19,"rate":237.8154},{"long":-109.8868,"lat":27.7928,"state_code":26,"mun_code":18,"date":"2016-07-01","name":"CAJEME, SON","count":56,"rate":143.3142},{"long":-110.2353,"lat":30.9885,"state_code":26,"mun_code":19,"date":"2016-07-01","name":"CANANEA, SON","count":13,"rate":430.2791},{"long":-111.8201,"lat":25.4913,"state_code":3,"mun_code":1,"date":"2016-07-01","name":"COMONDU, BCS","count":12,"rate":170.9204},{"long":-100.3568,"lat":25.9007,"state_code":19,"mun_code":10,"date":"2016-07-01","name":"EL CARMEN, NL","count":9,"rate":473.0521},{"long":-102.9959,"lat":23.2368,"state_code":32,"mun_code":10,"date":"2016-07-01","name":"FRESNILLO, ZAC","count":22,"rate":112.5579},{"long":-110.6259,"lat":28.1426,"state_code":26,"mun_code":29,"date":"2016-07-01","name":"GUAYMAS, SON","count":33,"rate":229.7462},{"long":-103.2074,"lat":20.3916,"state_code":14,"mun_code":44,"date":"2016-07-01","name":"IXTLAHUACAN DE LOS MEMBRILLOS, JAL","count":20,"rate":421.1388},{"long":-109.7533,"lat":23.2766,"state_code":3,"mun_code":8,"date":"2016-07-01","name":"LOS CABOS, BCS","count":78,"rate":284.7177},{"long":-111.0214,"lat":30.7314,"state_code":26,"mun_code":36,"date":"2016-07-01","name":"MAGDALENA, SON","count":6,"rate":205.5078},{"long":-103.2151,"lat":25.5598,"state_code":5,"mun_code":17,"date":"2016-07-01","name":"MATAMOROS, COAH","count":19,"rate":191.9772},{"long":-113.2307,"lat":27.2861,"state_code":3,"mun_code":2,"date":"2016-07-01","name":"MULEGE, BCS","count":20,"rate":337.3147},{"long":-111.0024,"lat":31.1988,"state_code":26,"mun_code":43,"date":"2016-07-01","name":"NOGALES, SON","count":41,"rate":191.1136},{"long":-101.8158,"lat":20.4016,"state_code":11,"mun_code":23,"date":"2016-07-01","name":"PENJAMO, GTO","count":19,"rate":140.1108},{"long":-99.9771,"lat":25.7368,"state_code":19,"mun_code":41,"date":"2016-07-01","name":"PESQUERIA, NL","count":17,"rate":689.5782},{"long":-95.2196,"lat":16.1934,"state_code":20,"mun_code":79,"date":"2016-07-01","name":"SALINA CRUZ, OAX","count":25,"rate":330.513},{"long":-100.9151,"lat":20.2076,"state_code":11,"mun_code":28,"date":"2016-07-01","name":"SALVATIERRA, GTO","count":18,"rate":209.5036},{"long":-100.9609,"lat":22.2705,"state_code":24,"mun_code":28,"date":"2016-07-01","name":"SAN LUIS POTOSI, SLP","count":332,"rate":462.4002},{"long":-114.3513,"lat":32.017,"state_code":26,"mun_code":55,"date":"2016-07-01","name":"SAN LUIS RIO COLORADO, SON","count":22,"rate":127.3008},{"long":-100.3748,"lat":25.6446,"state_code":19,"mun_code":19,"date":"2016-07-01","name":"SAN PEDRO GARZA GARCIA, NL","count":10,"rate":87.6942},{"long":-111.059,"lat":30.4516,"state_code":26,"mun_code":58,"date":"2016-07-01","name":"SANTA ANA, SON","count":6,"rate":394.2368},{"long":-99.6293,"lat":19.0817,"state_code":15,"mun_code":90,"date":"2016-07-01","name":"TENANGO DEL VALLE, MEX","count":9,"rate":116.9922},{"long":-98.8278,"lat":19.4716,"state_code":15,"mun_code":99,"date":"2016-07-01","name":"TEXCOCO, MEX","count":43,"rate":184.9483},{"long":-99.4322,"lat":19.1623,"state_code":15,"mun_code":101,"date":"2016-07-01","name":"TIANGUISTENCO, MEX","count":8,"rate":116.2307},{"long":-103.2489,"lat":25.1701,"state_code":5,"mun_code":35,"date":"2016-07-01","name":"TORREON, COAH","count":69,"rate":114.2528}],"ext":[{"long":-99.7143,"lat":16.9572,"state_code":12,"mun_code":1,"date":"2016-07-01","name":"ACAPULCO DE JUAREZ, GRO","count":11,"rate":15.0419},{"long":-99.9142,"lat":25.5246,"state_code":19,"mun_code":9,"date":"2016-07-01","name":"CADEREYTA JIMENEZ, NL","count":9,"rate":106.6404},{"long":-109.8868,"lat":27.7928,"state_code":26,"mun_code":18,"date":"2016-07-01","name":"CAJEME, SON","count":6,"rate":15.3551},{"long":-103.6327,"lat":19.1161,"state_code":6,"mun_code":2,"date":"2016-07-01","name":"COLIMA, COL","count":5,"rate":35.4944},{"long":-92.3048,"lat":14.934,"state_code":7,"mun_code":89,"date":"2016-07-01","name":"TAPACHULA, CHPS","count":7,"rate":22.5173}]}
