{"hom":[{"long":-99.2468,"lat":19.3362,"state_code":9,"mun_code":10,"date":"2017-04-01","name":"ALVARO OBREGON, CDMX","count":12,"rate":19.7102},{"long":-100.6217,"lat":20.5755,"state_code":11,"mun_code":5,"date":"2017-04-01","name":"APASEO EL GRANDE, GTO","count":8,"rate":103.0463},{"long":-96.9385,"lat":18.9324,"state_code":30,"mun_code":44,"date":"2017-04-01","name":"CORDOBA, VER","count":13,"rate":74.8036},{"long":-106.7994,"lat":24.4815,"state_code":25,"mun_code":5,"date":"2017-04-01","name":"COSALA, SIN","count":6,"rate":425.7332},{"long":-103.2455,"lat":20.539,"state_code":14,"mun_code":70,"date":"2017-04-01","name":"EL SALTO, JAL","count":7,"rate":51.8993},{"long":-114.9585,"lat":30.0362,"state_code":2,"mun_code":1,"date":"2017-04-01","name":"ENSENADA, BC","count":14,"rate":31.456},{"long":-100.3556,"lat":25.822,"state_code":19,"mun_code":21,"date":"2017-04-01","name":"GENERAL ESCOBEDO, NL","count":8,"rate":22.9914},{"long":-101.6224,"lat":21.1247,"state_code":11,"mun_code":20,"date":"2017-04-01","name":"LEON, GTO","count":19,"rate":14.6971},{"long":-115.1641,"lat":31.739,"state_code":2,"mun_code":2,"date":"2017-04-01","name":"MEXICALI, BC","count":8,"rate":9.1392},{"long":-102.1238,"lat":18.9711,"state_code":16,"mun_code":55,"date":"2017-04-01","name":"MUGICA, MICH","count":7,"rate":173.5609},{"long":-107.7646,"lat":24.7233,"state_code":25,"mun_code":18,"date":"2017-04-01","name":"NAVOLATO, SIN","count":14,"rate":117.5351},{"long":-99.9771,"lat":25.7368,"state_code":19,"mun_code":41,"date":"2017-04-01","name":"PESQUERIA, NL","count":5,"rate":205.2686},{"long":-102.7663,"lat":20.0551,"state_code":16,"mun_code":76,"date":"2017-04-01","name":"SAHUAYO, MICH","count":14,"rate":208.2481},{"long":-97.7852,"lat":16.2021,"state_code":20,"mun_code":467,"date":"2017-04-01","name":"SANTIAGO JAMILTEPEC, OAX","count":6,"rate":368.8525},{"long":-98.1214,"lat":16.2924,"state_code":20,"mun_code":482,"date":"2017-04-01","name":"SANTIAGO PINOTEPA NACIONAL, OAX","count":7,"rate":151.5452},{"long":-102.2487,"lat":19.8726,"state_code":16,"mun_code":85,"date":"2017-04-01","name":"TANGANCICUARO, MICH","count":5,"rate":174.5708},{"long":-100.7444,"lat":17.4059,"state_code":12,"mun_code":57,"date":"2017-04-01","name":"TECPAN DE GALEANA, GRO","count":10,"rate":184.6779}],"rvcv":[{"long":-98.8897,"lat":20.3145,"state_code":13,"mun_code":3,"date":"2017-04-01","name":"ACTOPAN, HGO","count":8,"rate":161.5455},{"long":-100.6217,"lat":20.5755,"state_code":11,"mun_code":5,"date":"2017-04-01","name":"APASEO EL GRANDE, GTO","count":6,"rate":77.2847},{"long":-98.1271,"lat":19.4235,"state_code":29,"mun_code":5,"date":"2017-04-01","name":"APIZACO, TLAX","count":5,"rate":71.4218},{"long":-97.4281,"lat":18.7332,"state_code":21,"mun_code":99,"date":"2017-04-01","name":"CAÃ‘ADA MORELOS, PUE","count":14,"rate":829.3429},{"long":-94.3974,"lat":18.1326,"state_code":30,"mun_code":39,"date":"2017-04-01","name":"COATZACOALCOS, VER","count":49,"rate":177.1079},{"long":-98.2561,"lat":19.1167,"state_code":21,"mun_code":41,"date":"2017-04-01","name":"CUAUTLANCINGO, PUE","count":8,"rate":95.7759},{"long":-103.3358,"lat":20.676,"state_code":14,"mun_code":39,"date":"2017-04-01","name":"GUADALAJARA, JAL","count":138,"rate":108.9211},{"long":-98.0517,"lat":20.1662,"state_code":21,"mun_code":71,"date":"2017-04-01","name":"HUAUCHINANGO, PUE","count":5,"rate":56.2029},{"long":-99.2366,"lat":19.0576,"state_code":17,"mun_code":9,"date":"2017-04-01","name":"HUITZILAC, MOR","count":13,"rate":791.2757},{"long":-99.2013,"lat":20.5325,"state_code":13,"mun_code":30,"date":"2017-04-01","name":"IXMIQUILPAN, HGO","count":6,"rate":74.1198},{"long":-107.7646,"lat":24.7233,"state_code":25,"mun_code":18,"date":"2017-04-01","name":"NAVOLATO, SIN","count":37,"rate":310.6285},{"long":-97.3375,"lat":18.6275,"state_code":21,"mun_code":103,"date":"2017-04-01","name":"NICOLAS BRAVO, PUE","count":10,"rate":1829.8262},{"long":-98.7822,"lat":20.1021,"state_code":13,"mun_code":48,"date":"2017-04-01","name":"PACHUCA DE SOTO, HGO","count":17,"rate":74.2828},{"long":-97.5356,"lat":18.835,"state_code":21,"mun_code":110,"date":"2017-04-01","name":"PALMAR DE BRAVO, PUE","count":14,"rate":357.8427},{"long":-102.2123,"lat":19.0621,"state_code":16,"mun_code":64,"date":"2017-04-01","name":"PARACUARO, MICH","count":7,"rate":311.5149},{"long":-116.8907,"lat":32.2529,"state_code":2,"mun_code":5,"date":"2017-04-01","name":"PLAYAS DE ROSARITO, BC","count":7,"rate":77.3281},{"long":-96.6362,"lat":17.0024,"state_code":20,"mun_code":78,"date":"2017-04-01","name":"ROJAS DE CUAUHTEMOC, OAX","count":5,"rate":5132.592},{"long":-92.5899,"lat":16.6783,"state_code":7,"mun_code":78,"date":"2017-04-01","name":"SAN CRISTOBAL DE LAS CASAS, CHPS","count":14,"rate":79.2572},{"long":-98.4285,"lat":19.269,"state_code":21,"mun_code":132,"date":"2017-04-01","name":"SAN MARTIN TEXMELUCAN, PUE","count":10,"rate":77.35},{"long":-99.5396,"lat":19.2657,"state_code":15,"mun_code":76,"date":"2017-04-01","name":"SAN MATEO ATENCO, MEX","count":13,"rate":188.8963},{"long":-103.3478,"lat":20.5914,"state_code":14,"mun_code":98,"date":"2017-04-01","name":"SAN PEDRO TLAQUEPAQUE, JAL","count":49,"rate":88.2896},{"long":-97.6139,"lat":19.1539,"state_code":21,"mun_code":142,"date":"2017-04-01","name":"SAN SALVADOR EL SECO, PUE","count":5,"rate":198.2619},{"long":-102.2487,"lat":19.8726,"state_code":16,"mun_code":85,"date":"2017-04-01","name":"TANGANCICUARO, MICH","count":5,"rate":174.5708},{"long":-97.4451,"lat":18.4613,"state_code":21,"mun_code":156,"date":"2017-04-01","name":"TEHUACAN, PUE","count":26,"rate":104.069},{"long":-97.543,"lat":18.5539,"state_code":21,"mun_code":161,"date":"2017-04-01","name":"TEPANCO DE LOPEZ, PUE","count":10,"rate":566.7863},{"long":-102.7208,"lat":20.8148,"state_code":14,"mun_code":93,"date":"2017-04-01","name":"TEPATITLAN DE MORELOS, JAL","count":5,"rate":40.3758},{"long":-116.82,"lat":32.4041,"state_code":2,"mun_code":4,"date":"2017-04-01","name":"TIJUANA, BC","count":88,"rate":59.6844},{"long":-97.6289,"lat":18.6557,"state_code":21,"mun_code":177,"date":"2017-04-01","name":"TLACOTEPEC DE BENITO JUAREZ, PUE","count":5,"rate":114.0316},{"long":-99.1701,"lat":19.5427,"state_code":15,"mun_code":104,"date":"2017-04-01","name":"TLALNEPANTLA DE BAZ, MEX","count":249,"rate":419.6511},{"long":-103.2143,"lat":20.6201,"state_code":14,"mun_code":101,"date":"2017-04-01","name":"TONALA, JAL","count":43,"rate":94.5251},{"long":-96.1685,"lat":18.3028,"state_code":30,"mun_code":207,"date":"2017-04-01","name":"TRES VALLES, VER","count":5,"rate":126.6491},{"long":-99.1453,"lat":19.6262,"state_code":15,"mun_code":109,"date":"2017-04-01","name":"TULTITLAN, MEX","count":25,"rate":49.4971},{"long":-99.0718,"lat":19.8091,"state_code":15,"mun_code":120,"date":"2017-04-01","name":"ZUMPANGO, MEX","count":21,"rate":129.661}],"rvsv":[{"long":-98.0531,"lat":19.0473,"state_code":21,"mun_code":15,"date":"2017-04-01","name":"AMOZOC, PUE","count":19,"rate":188.4702},{"long":-102.7049,"lat":21.9007,"state_code":1,"mun_code":3,"date":"2017-04-01","name":"CALVILLO, AGS","count":8,"rate":163.2736},{"long":-97.1634,"lat":18.7904,"state_code":30,"mun_code":30,"date":"2017-04-01","name":"CAMERINO Z. MENDOZA, VER","count":10,"rate":270.4591},{"long":-92.5862,"lat":18.3614,"state_code":27,"mun_code":3,"date":"2017-04-01","name":"CENTLA, TAB","count":7,"rate":77.358},{"long":-98.1347,"lat":19.821,"state_code":21,"mun_code":53,"date":"2017-04-01","name":"CHIGNAHUAPAN, PUE","count":5,"rate":93.146},{"long":-93.3367,"lat":18.2869,"state_code":27,"mun_code":5,"date":"2017-04-01","name":"COMALCALCO, TAB","count":51,"rate":295.5822},{"long":-100.6598,"lat":25.809,"state_code":19,"mun_code":18,"date":"2017-04-01","name":"GARCIA, NL","count":12,"rate":72.4004},{"long":-100.6779,"lat":19.6126,"state_code":16,"mun_code":34,"date":"2017-04-01","name":"HIDALGO, MICH","count":10,"rate":96.6923},{"long":-98.3455,"lat":19.1193,"state_code":21,"mun_code":90,"date":"2017-04-01","name":"JUAN C. BONILLA, PUE","count":6,"rate":329.8516},{"long":-92.4586,"lat":17.845,"state_code":27,"mun_code":12,"date":"2017-04-01","name":"MACUSPANA, TAB","count":22,"rate":162.7961},{"long":-92.8916,"lat":15.461,"state_code":7,"mun_code":51,"date":"2017-04-01","name":"MAPASTEPEC, CHPS","count":5,"rate":119.9856},{"long":-92.4976,"lat":14.8806,"state_code":7,"mun_code":54,"date":"2017-04-01","name":"MAZATAN, CHPS","count":5,"rate":203.8597},{"long":-99.1807,"lat":20.2239,"state_code":13,"mun_code":41,"date":"2017-04-01","name":"MIXQUIAHUALA DE JUAREZ, HGO","count":6,"rate":152.8857},{"long":-99.8084,"lat":25.1263,"state_code":19,"mun_code":38,"date":"2017-04-01","name":"MONTEMORELOS, NL","count":10,"rate":183.8207},{"long":-98.3528,"lat":16.6616,"state_code":12,"mun_code":46,"date":"2017-04-01","name":"OMETEPEC, GRO","count":10,"rate":182.4401},{"long":-97.1048,"lat":18.8559,"state_code":30,"mun_code":118,"date":"2017-04-01","name":"ORIZABA, VER","count":29,"rate":276.8629},{"long":-98.1755,"lat":19.0086,"state_code":21,"mun_code":114,"date":"2017-04-01","name":"PUEBLA, PUE","count":221,"rate":159.8307},{"long":-101.5387,"lat":19.6952,"state_code":16,"mun_code":73,"date":"2017-04-01","name":"QUIROGA, MICH","count":6,"rate":263.1002},{"long":-97.8165,"lat":19.2479,"state_code":21,"mun_code":117,"date":"2017-04-01","name":"RAFAEL LARA GRAJALES, PUE","count":7,"rate":544.7824},{"long":-98.1404,"lat":19.1561,"state_code":29,"mun_code":25,"date":"2017-04-01","name":"SAN PABLO DEL MONTE, TLAX","count":26,"rate":400.9304},{"long":-98.3431,"lat":19.073,"state_code":21,"mun_code":140,"date":"2017-04-01","name":"SAN PEDRO CHOLULA, PUE","count":15,"rate":137.282},{"long":-87.3978,"lat":20.587,"state_code":23,"mun_code":8,"date":"2017-04-01","name":"SOLIDARIDAD, QROO","count":10,"rate":54.6393},{"long":-103.6822,"lat":20.6074,"state_code":14,"mun_code":83,"date":"2017-04-01","name":"TALA, JAL","count":5,"rate":74.9457},{"long":-97.9682,"lat":18.887,"state_code":21,"mun_code":153,"date":"2017-04-01","name":"TECALI DE HERRERA, PUE","count":7,"rate":373.8817},{"long":-97.4451,"lat":18.4613,"state_code":21,"mun_code":156,"date":"2017-04-01","name":"TEHUACAN, PUE","count":92,"rate":368.2443},{"long":-97.8762,"lat":19.0119,"state_code":21,"mun_code":164,"date":"2017-04-01","name":"TEPEACA, PUE","count":22,"rate":317.4412},{"long":-116.82,"lat":32.4041,"state_code":2,"mun_code":4,"date":"2017-04-01","name":"TIJUANA, BC","count":951,"rate":644.9979},{"long":-98.3509,"lat":20.1236,"state_code":13,"mun_code":77,"date":"2017-04-01","name":"TULANCINGO DE BRAVO, HGO","count":60,"rate":423.9109},{"long":-100.9925,"lat":20.542,"state_code":11,"mun_code":44,"date":"2017-04-01","name":"VILLAGRAN, GTO","count":15,"rate":299.6953},{"long":-101.8279,"lat":19.8241,"state_code":16,"mun_code":107,"date":"2017-04-01","name":"ZACAPU, MICH","count":10,"rate":158.2237},{"long":-97.0347,"lat":16.7802,"state_code":20,"mun_code":570,"date":"2017-04-01","name":"ZIMATLAN DE ALVAREZ, OAX","count":6,"rate":357.764},{"long":-99.7978,"lat":19.2153,"state_code":15,"mun_code":118,"date":"2017-04-01","name":"ZINACANTEPEC, MEX","count":29,"rate":170.5423}],"lesions":[{"long":-100.6217,"lat":20.5755,"state_code":11,"mun_code":5,"date":"2017-04-01","name":"APASEO EL GRANDE, GTO","count":13,"rate":167.4502},{"long":-104.4237,"lat":28.0337,"state_code":8,"mun_code":11,"date":"2017-04-01","name":"CAMARGO, CHIH","count":13,"rate":292.617},{"long":-95.8071,"lat":18.2134,"state_code":30,"mun_code":54,"date":"2017-04-01","name":"CHACALTIANGUIS, VER","count":8,"rate":802.4072},{"long":-95.0893,"lat":16.6234,"state_code":20,"mun_code":14,"date":"2017-04-01","name":"CIUDAD IXTEPEC, OAX","count":5,"rate":211.6477},{"long":-105.4919,"lat":28.1195,"state_code":8,"mun_code":21,"date":"2017-04-01","name":"DELICIAS, CHIH","count":13,"rate":100.3286},{"long":-98.4676,"lat":20.5177,"state_code":30,"mun_code":72,"date":"2017-04-01","name":"HUAYACOCOTLA, VER","count":12,"rate":656.4252},{"long":-92.4238,"lat":15.0094,"state_code":7,"mun_code":37,"date":"2017-04-01","name":"HUEHUETAN, CHPS","count":5,"rate":161.273},{"long":-98.0641,"lat":20.5142,"state_code":13,"mun_code":27,"date":"2017-04-01","name":"HUEHUETLA, HGO","count":5,"rate":247.1984},{"long":-99.6807,"lat":20.3838,"state_code":13,"mun_code":29,"date":"2017-04-01","name":"HUICHAPAN, HGO","count":13,"rate":324.7564},{"long":-99.3395,"lat":19.3831,"state_code":15,"mun_code":37,"date":"2017-04-01","name":"HUIXQUILUCAN, MEX","count":28,"rate":121.5717},{"long":-102.5233,"lat":20.3638,"state_code":14,"mun_code":18,"date":"2017-04-01","name":"LA BARCA, JAL","count":11,"rate":190.4789},{"long":-101.8796,"lat":19.6452,"state_code":16,"mun_code":56,"date":"2017-04-01","name":"NAHUATZEN, MICH","count":5,"rate":208.8119},{"long":-102.7241,"lat":20.3974,"state_code":14,"mun_code":63,"date":"2017-04-01","name":"OCOTLAN, JAL","count":21,"rate":253.3631},{"long":-101.599,"lat":19.4945,"state_code":16,"mun_code":66,"date":"2017-04-01","name":"PATZCUARO, MICH","count":21,"rate":267.8429},{"long":-102.8947,"lat":20.2702,"state_code":14,"mun_code":66,"date":"2017-04-01","name":"PONCITLAN, JAL","count":8,"rate":181.6943},{"long":-89.674,"lat":21.7922,"state_code":31,"mun_code":59,"date":"2017-04-01","name":"PROGRESO, YUC","count":12,"rate":240.008},{"long":-96.6362,"lat":17.0024,"state_code":20,"mun_code":78,"date":"2017-04-01","name":"ROJAS DE CUAUHTEMOC, OAX","count":11,"rate":11291.7023},{"long":-98.1214,"lat":16.2924,"state_code":20,"mun_code":482,"date":"2017-04-01","name":"SANTIAGO PINOTEPA NACIONAL, OAX","count":5,"rate":108.2466},{"long":-99.1496,"lat":19.9046,"state_code":15,"mun_code":96,"date":"2017-04-01","name":"TEQUIXQUIAC, MEX","count":10,"rate":311.1226},{"long":-96.7666,"lat":16.9497,"state_code":20,"mun_code":565,"date":"2017-04-01","name":"VILLA DE ZAACHILA, OAX","count":5,"rate":153.7752},{"long":-98.5867,"lat":20.6507,"state_code":13,"mun_code":81,"date":"2017-04-01","name":"ZACUALTIPAN DE ANGELES, HGO","count":14,"rate":447.5226}],"ext":[{"long":-92.8602,"lat":18.0091,"state_code":27,"mun_code":4,"date":"2017-04-01","name":"CENTRO, TAB","count":17,"rate":28.9511},{"long":-94.3887,"lat":17.7114,"state_code":30,"mun_code":108,"date":"2017-04-01","name":"MINATITLAN, VER","count":5,"rate":36.1696}]}
