{"hom":[{"long":-99.2468,"lat":19.3362,"state_code":9,"mun_code":10,"date":"2017-05-01","name":"ALVARO OBREGON, CDMX","count":11,"rate":17.4873},{"long":-100.5735,"lat":20.4218,"state_code":11,"mun_code":4,"date":"2017-05-01","name":"APASEO EL ALTO, GTO","count":5,"rate":84.121},{"long":-100.6217,"lat":20.5755,"state_code":11,"mun_code":5,"date":"2017-05-01","name":"APASEO EL GRANDE, GTO","count":8,"rate":99.6495},{"long":-99.9142,"lat":25.5246,"state_code":19,"mun_code":9,"date":"2017-05-01","name":"CADEREYTA JIMENEZ, NL","count":9,"rate":105.3558},{"long":-99.1124,"lat":17.5237,"state_code":12,"mun_code":28,"date":"2017-05-01","name":"CHILAPA DE ALVAREZ, GRO","count":24,"rate":212.3939},{"long":-96.9385,"lat":18.9324,"state_code":30,"mun_code":44,"date":"2017-05-01","name":"CORDOBA, VER","count":12,"rate":66.784},{"long":-106.9487,"lat":28.7235,"state_code":8,"mun_code":17,"date":"2017-05-01","name":"CUAUHTEMOC, CHIH","count":18,"rate":116.3164},{"long":-107.2667,"lat":24.6515,"state_code":25,"mun_code":6,"date":"2017-05-01","name":"CULIACAN, SIN","count":79,"rate":95.8804},{"long":-106.8421,"lat":24.0434,"state_code":25,"mun_code":8,"date":"2017-05-01","name":"ELOTA, SIN","count":5,"rate":134.421},{"long":-114.9585,"lat":30.0362,"state_code":2,"mun_code":1,"date":"2017-05-01","name":"ENSENADA, BC","count":10,"rate":21.7177},{"long":-98.0517,"lat":20.1662,"state_code":21,"mun_code":71,"date":"2017-05-01","name":"HUAUCHINANGO, PUE","count":6,"rate":65.2136},{"long":-99.255,"lat":19.8226,"state_code":15,"mun_code":35,"date":"2017-05-01","name":"HUEHUETOCA, MEX","count":7,"rate":58.0716},{"long":-99.2046,"lat":19.4281,"state_code":9,"mun_code":16,"date":"2017-05-01","name":"MIGUEL HIDALGO, CDMX","count":8,"rate":24.5354},{"long":-98.2564,"lat":22.114,"state_code":30,"mun_code":123,"date":"2017-05-01","name":"PANUCO, VER","count":8,"rate":90.3271},{"long":-97.4385,"lat":20.53,"state_code":30,"mun_code":131,"date":"2017-05-01","name":"POZA RICA DE HIDALGO, VER","count":11,"rate":62.1845},{"long":-98.3734,"lat":25.8102,"state_code":28,"mun_code":32,"date":"2017-05-01","name":"REYNOSA, TAM","count":30,"rate":49.7201},{"long":-100.7444,"lat":17.4059,"state_code":12,"mun_code":57,"date":"2017-05-01","name":"TECPAN DE GALEANA, GRO","count":9,"rate":160.8114},{"long":-116.82,"lat":32.4041,"state_code":2,"mun_code":4,"date":"2017-05-01","name":"TIJUANA, BC","count":158,"rate":103.5794}],"rvcv":[{"long":-98.8897,"lat":20.3145,"state_code":13,"mun_code":3,"date":"2017-05-01","name":"ACTOPAN, HGO","count":15,"rate":292.8558},{"long":-98.447,"lat":19.7229,"state_code":13,"mun_code":8,"date":"2017-05-01","name":"APAN, HGO","count":6,"rate":152.9489},{"long":-100.1988,"lat":18.2526,"state_code":12,"mun_code":7,"date":"2017-05-01","name":"ARCELIA, GRO","count":9,"rate":315.2729},{"long":-99.1821,"lat":19.4853,"state_code":9,"mun_code":2,"date":"2017-05-01","name":"AZCAPOTZALCO, CDMX","count":36,"rate":103.8272},{"long":-97.4281,"lat":18.7332,"state_code":21,"mun_code":99,"date":"2017-05-01","name":"CAÃ‘ADA MORELOS, PUE","count":9,"rate":515.5943},{"long":-99.6974,"lat":17.3908,"state_code":12,"mun_code":29,"date":"2017-05-01","name":"CHILPANCINGO DE LOS BRAVO, GRO","count":45,"rate":195.204},{"long":-94.3974,"lat":18.1326,"state_code":30,"mun_code":39,"date":"2017-05-01","name":"COATZACOALCOS, VER","count":39,"rate":136.321},{"long":-94.5681,"lat":18.0162,"state_code":30,"mun_code":48,"date":"2017-05-01","name":"COSOLEACAQUE, VER","count":39,"rate":347.164},{"long":-98.2561,"lat":19.1167,"state_code":21,"mun_code":41,"date":"2017-05-01","name":"CUAUTLANCINGO, PUE","count":8,"rate":92.5525},{"long":-104.8437,"lat":23.9705,"state_code":10,"mun_code":5,"date":"2017-05-01","name":"DURANGO, DGO","count":10,"rate":17.775},{"long":-99.6098,"lat":17.8015,"state_code":12,"mun_code":75,"date":"2017-05-01","name":"EDUARDO NERI, GRO","count":13,"rate":297.5789},{"long":-103.2455,"lat":20.539,"state_code":14,"mun_code":70,"date":"2017-05-01","name":"EL SALTO, JAL","count":13,"rate":93.1549},{"long":-100.3556,"lat":25.822,"state_code":19,"mun_code":21,"date":"2017-05-01","name":"GENERAL ESCOBEDO, NL","count":10,"rate":27.772},{"long":-97.3801,"lat":19.3164,"state_code":21,"mun_code":67,"date":"2017-05-01","name":"GUADALUPE VICTORIA, PUE","count":6,"rate":385.8107},{"long":-99.5966,"lat":20.0191,"state_code":15,"mun_code":45,"date":"2017-05-01","name":"JILOTEPEC, MEX","count":7,"rate":82.0327},{"long":-101.8797,"lat":21.494,"state_code":14,"mun_code":53,"date":"2017-05-01","name":"LAGOS DE MORENO, JAL","count":5,"rate":34.073},{"long":-107.7646,"lat":24.7233,"state_code":25,"mun_code":18,"date":"2017-05-01","name":"NAVOLATO, SIN","count":63,"rate":511.5781},{"long":-97.3375,"lat":18.6275,"state_code":21,"mun_code":103,"date":"2017-05-01","name":"NICOLAS BRAVO, PUE","count":7,"rate":1238.4266},{"long":-97.5356,"lat":18.835,"state_code":21,"mun_code":110,"date":"2017-05-01","name":"PALMAR DE BRAVO, PUE","count":10,"rate":247.1356},{"long":-102.2123,"lat":19.0621,"state_code":16,"mun_code":64,"date":"2017-05-01","name":"PARACUARO, MICH","count":6,"rate":258.275},{"long":-101.8158,"lat":20.4016,"state_code":11,"mun_code":23,"date":"2017-05-01","name":"PENJAMO, GTO","count":6,"rate":44.025},{"long":-116.8907,"lat":32.2529,"state_code":2,"mun_code":5,"date":"2017-05-01","name":"PLAYAS DE ROSARITO, BC","count":11,"rate":117.4293},{"long":-98.3734,"lat":25.8102,"state_code":28,"mun_code":32,"date":"2017-05-01","name":"REYNOSA, TAM","count":161,"rate":266.8315},{"long":-103.0319,"lat":23.783,"state_code":32,"mun_code":39,"date":"2017-05-01","name":"RIO GRANDE, ZAC","count":7,"rate":120.8077},{"long":-92.5899,"lat":16.6783,"state_code":7,"mun_code":78,"date":"2017-05-01","name":"SAN CRISTOBAL DE LAS CASAS, CHPS","count":8,"rate":43.7779},{"long":-99.5396,"lat":19.2657,"state_code":15,"mun_code":76,"date":"2017-05-01","name":"SAN MATEO ATENCO, MEX","count":6,"rate":84.2685},{"long":-98.9865,"lat":19.7058,"state_code":15,"mun_code":81,"date":"2017-05-01","name":"TECAMAC, MEX","count":112,"rate":281.0267},{"long":-97.4451,"lat":18.4613,"state_code":21,"mun_code":156,"date":"2017-05-01","name":"TEHUACAN, PUE","count":26,"rate":100.6254},{"long":-102.7208,"lat":20.8148,"state_code":14,"mun_code":93,"date":"2017-05-01","name":"TEPATITLAN DE MORELOS, JAL","count":5,"rate":39.0379},{"long":-99.1701,"lat":19.5427,"state_code":15,"mun_code":104,"date":"2017-05-01","name":"TLALNEPANTLA DE BAZ, MEX","count":343,"rate":559.0233},{"long":-103.2143,"lat":20.6201,"state_code":14,"mun_code":101,"date":"2017-05-01","name":"TONALA, JAL","count":60,"rate":127.4936},{"long":-93.1373,"lat":16.7394,"state_code":7,"mun_code":101,"date":"2017-05-01","name":"TUXTLA GUTIERREZ, CHPS","count":23,"rate":42.5262},{"long":-99.0718,"lat":19.8091,"state_code":15,"mun_code":120,"date":"2017-05-01","name":"ZUMPANGO, MEX","count":28,"rate":167.0561}],"rvsv":[{"long":-101.7067,"lat":19.1563,"state_code":16,"mun_code":9,"date":"2017-05-01","name":"ARIO, MICH","count":10,"rate":313.8453},{"long":-98.6765,"lat":20.3548,"state_code":13,"mun_code":12,"date":"2017-05-01","name":"ATOTONILCO EL GRANDE, HGO","count":9,"rate":354.2199},{"long":-104.3122,"lat":19.7435,"state_code":14,"mun_code":15,"date":"2017-05-01","name":"AUTLAN DE NAVARRO, JAL","count":6,"rate":111.169},{"long":-102.7049,"lat":21.9007,"state_code":1,"mun_code":3,"date":"2017-05-01","name":"CALVILLO, AGS","count":5,"rate":98.6653},{"long":-97.1634,"lat":18.7904,"state_code":30,"mun_code":30,"date":"2017-05-01","name":"CAMERINO Z. MENDOZA, VER","count":13,"rate":340.0634},{"long":-93.3367,"lat":18.2869,"state_code":27,"mun_code":5,"date":"2017-05-01","name":"COMALCALCO, TAB","count":43,"rate":240.9909},{"long":-99.2252,"lat":19.6545,"state_code":15,"mun_code":121,"date":"2017-05-01","name":"CUAUTITLAN IZCALLI, MEX","count":45,"rate":91.8193},{"long":-93.2207,"lat":18.0766,"state_code":27,"mun_code":6,"date":"2017-05-01","name":"CUNDUACAN, TAB","count":61,"rate":518.4142},{"long":-100.1348,"lat":25.9114,"state_code":19,"mun_code":25,"date":"2017-05-01","name":"GENERAL ZUAZUA, NL","count":7,"rate":101.2358},{"long":-104.0733,"lat":24.4127,"state_code":10,"mun_code":8,"date":"2017-05-01","name":"GUADALUPE VICTORIA, DGO","count":6,"rate":188.2258},{"long":-98.4488,"lat":19.1671,"state_code":21,"mun_code":74,"date":"2017-05-01","name":"HUEJOTZINGO, PUE","count":10,"rate":168.9617},{"long":-99.2013,"lat":20.5325,"state_code":13,"mun_code":30,"date":"2017-05-01","name":"IXMIQUILPAN, HGO","count":25,"rate":298.5414},{"long":-93.0839,"lat":18.2133,"state_code":27,"mun_code":10,"date":"2017-05-01","name":"JALPA DE MENDEZ, TAB","count":23,"rate":294.3896},{"long":-99.8084,"lat":25.1263,"state_code":19,"mun_code":38,"date":"2017-05-01","name":"MONTEMORELOS, NL","count":6,"rate":106.6317},{"long":-92.9486,"lat":18.1879,"state_code":27,"mun_code":13,"date":"2017-05-01","name":"NACAJUCA, TAB","count":30,"rate":253.5292},{"long":-102.8595,"lat":21.4174,"state_code":32,"mun_code":34,"date":"2017-05-01","name":"NOCHISTLAN DE MEJIA, ZAC","count":5,"rate":197.754},{"long":-98.3528,"lat":16.6616,"state_code":12,"mun_code":46,"date":"2017-05-01","name":"OMETEPEC, GRO","count":6,"rate":105.8718},{"long":-97.1048,"lat":18.8559,"state_code":30,"mun_code":118,"date":"2017-05-01","name":"ORIZABA, VER","count":19,"rate":175.4829},{"long":-98.1755,"lat":19.0086,"state_code":21,"mun_code":114,"date":"2017-05-01","name":"PUEBLA, PUE","count":273,"rate":190.94},{"long":-99.5513,"lat":19.1689,"state_code":15,"mun_code":73,"date":"2017-05-01","name":"SAN ANTONIO LA ISLA, MEX","count":10,"rate":373.6936},{"long":-98.1404,"lat":19.1561,"state_code":29,"mun_code":25,"date":"2017-05-01","name":"SAN PABLO DEL MONTE, TLAX","count":21,"rate":313.0002},{"long":-98.3431,"lat":19.073,"state_code":21,"mun_code":140,"date":"2017-05-01","name":"SAN PEDRO CHOLULA, PUE","count":14,"rate":123.9021},{"long":-97.9682,"lat":18.887,"state_code":21,"mun_code":153,"date":"2017-05-01","name":"TECALI DE HERRERA, PUE","count":6,"rate":309.8702},{"long":-97.7312,"lat":18.8593,"state_code":21,"mun_code":154,"date":"2017-05-01","name":"TECAMACHALCO, PUE","count":15,"rate":217.8018},{"long":-97.4451,"lat":18.4613,"state_code":21,"mun_code":156,"date":"2017-05-01","name":"TEHUACAN, PUE","count":70,"rate":270.9145},{"long":-97.9373,"lat":18.4967,"state_code":21,"mun_code":169,"date":"2017-05-01","name":"TEPEXI DE RODRIGUEZ, PUE","count":5,"rate":265.0501},{"long":-97.3586,"lat":19.8638,"state_code":21,"mun_code":174,"date":"2017-05-01","name":"TEZIUTLAN, PUE","count":10,"rate":116.7666},{"long":-116.82,"lat":32.4041,"state_code":2,"mun_code":4,"date":"2017-05-01","name":"TIJUANA, BC","count":1016,"rate":666.0549},{"long":-95.623,"lat":18.5337,"state_code":30,"mun_code":178,"date":"2017-05-01","name":"TLACOTALPAN, VER","count":8,"rate":702.9071},{"long":-99.231,"lat":20.0962,"state_code":13,"mun_code":74,"date":"2017-05-01","name":"TLAXCOAPAN, HGO","count":14,"rate":564.4181},{"long":-99.3767,"lat":20.0641,"state_code":13,"mun_code":76,"date":"2017-05-01","name":"TULA DE ALLENDE, HGO","count":34,"rate":347.8142},{"long":-98.3509,"lat":20.1236,"state_code":13,"mun_code":77,"date":"2017-05-01","name":"TULANCINGO DE BRAVO, HGO","count":60,"rate":409.7973},{"long":-97.999,"lat":19.9649,"state_code":21,"mun_code":208,"date":"2017-05-01","name":"ZACATLAN, PUE","count":8,"rate":110.7322},{"long":-99.7978,"lat":19.2153,"state_code":15,"mun_code":118,"date":"2017-05-01","name":"ZINACANTEPEC, MEX","count":31,"rate":176.1537}],"lesions":[{"long":-101.536,"lat":20.5332,"state_code":11,"mun_code":1,"date":"2017-05-01","name":"ABASOLO, GTO","count":23,"rate":299.5567},{"long":-102.2958,"lat":21.8114,"state_code":1,"mun_code":1,"date":"2017-05-01","name":"AGUASCALIENTES, AGS","count":246,"rate":322.4954},{"long":-100.6217,"lat":20.5755,"state_code":11,"mun_code":5,"date":"2017-05-01","name":"APASEO EL GRANDE, GTO","count":33,"rate":411.0542},{"long":-104.4237,"lat":28.0337,"state_code":8,"mun_code":11,"date":"2017-05-01","name":"CAMARGO, CHIH","count":5,"rate":108.8431},{"long":-100.6737,"lat":23.9304,"state_code":24,"mun_code":7,"date":"2017-05-01","name":"CEDRAL, SLP","count":7,"rate":404.3892},{"long":-99.5505,"lat":19.2065,"state_code":15,"mun_code":27,"date":"2017-05-01","name":"CHAPULTEPEC, MEX","count":6,"rate":543.845},{"long":-98.8776,"lat":19.4063,"state_code":15,"mun_code":29,"date":"2017-05-01","name":"CHICOLOAPAN, MEX","count":28,"rate":167.7499},{"long":-104.6149,"lat":19.2774,"state_code":14,"mun_code":22,"date":"2017-05-01","name":"CIHUATLAN, JAL","count":15,"rate":375.5628},{"long":-99.1491,"lat":19.4314,"state_code":9,"mun_code":15,"date":"2017-05-01","name":"CUAUHTEMOC, CDMX","count":83,"rate":181.6893},{"long":-103.5955,"lat":19.3268,"state_code":6,"mun_code":5,"date":"2017-05-01","name":"CUAUHTEMOC, COL","count":5,"rate":197.7944},{"long":-105.4919,"lat":28.1195,"state_code":8,"mun_code":21,"date":"2017-05-01","name":"DELICIAS, CHIH","count":7,"rate":52.2384},{"long":-99.3395,"lat":19.3831,"state_code":15,"mun_code":37,"date":"2017-05-01","name":"HUIXQUILUCAN, MEX","count":41,"rate":172.0741},{"long":-99.4127,"lat":23.4784,"state_code":28,"mun_code":17,"date":"2017-05-01","name":"JAUMAVE, TAM","count":5,"rate":355.2216},{"long":-102.5233,"lat":20.3638,"state_code":14,"mun_code":18,"date":"2017-05-01","name":"LA BARCA, JAL","count":7,"rate":117.2158},{"long":-95.5006,"lat":18.6566,"state_code":30,"mun_code":97,"date":"2017-05-01","name":"LERDO DE TEJADA, VER","count":6,"rate":327.4469},{"long":-104.3027,"lat":19.1495,"state_code":6,"mun_code":7,"date":"2017-05-01","name":"MANZANILLO, COL","count":38,"rate":234.9113},{"long":-104.1313,"lat":26.146,"state_code":10,"mun_code":13,"date":"2017-05-01","name":"MAPIMI, DGO","count":5,"rate":210.9289},{"long":-99.5883,"lat":19.2474,"state_code":15,"mun_code":54,"date":"2017-05-01","name":"METEPEC, MEX","count":111,"rate":537.7443},{"long":-96.9768,"lat":18.5917,"state_code":30,"mun_code":110,"date":"2017-05-01","name":"MIXTLA DE ALTAMIRANO, VER","count":6,"rate":641.4197},{"long":-100.6205,"lat":28.4964,"state_code":5,"mun_code":22,"date":"2017-05-01","name":"NAVA, COAH","count":13,"rate":497.6685},{"long":-102.7241,"lat":20.3974,"state_code":14,"mun_code":63,"date":"2017-05-01","name":"OCOTLAN, JAL","count":5,"rate":58.334},{"long":-102.3017,"lat":22.1045,"state_code":1,"mun_code":6,"date":"2017-05-01","name":"PABELLON DE ARTEAGA, AGS","count":18,"rate":457.441},{"long":-98.7822,"lat":20.1021,"state_code":13,"mun_code":48,"date":"2017-05-01","name":"PACHUCA DE SOTO, HGO","count":194,"rate":819.8427},{"long":-100.1277,"lat":25.0658,"state_code":19,"mun_code":43,"date":"2017-05-01","name":"RAYONES, NL","count":5,"rate":2106.8402},{"long":-103.0319,"lat":23.783,"state_code":32,"mun_code":39,"date":"2017-05-01","name":"RIO GRANDE, ZAC","count":9,"rate":155.3242},{"long":-101.6881,"lat":19.3812,"state_code":16,"mun_code":79,"date":"2017-05-01","name":"SALVADOR ESCALANTE, MICH","count":8,"rate":185.369},{"long":-100.4762,"lat":21.3994,"state_code":11,"mun_code":33,"date":"2017-05-01","name":"SAN LUIS DE LA PAZ, GTO","count":27,"rate":249.5908},{"long":-97.2962,"lat":16.1773,"state_code":20,"mun_code":364,"date":"2017-05-01","name":"SANTA CATARINA JUQUILA, OAX","count":5,"rate":380.4017},{"long":-101.4378,"lat":20.9631,"state_code":11,"mun_code":37,"date":"2017-05-01","name":"SILAO DE LA VICTORIA, GTO","count":61,"rate":372.2163},{"long":-100.8551,"lat":22.2716,"state_code":24,"mun_code":35,"date":"2017-05-01","name":"SOLEDAD DE GRACIANO SANCHEZ, SLP","count":83,"rate":312.3407},{"long":-103.8696,"lat":18.902,"state_code":6,"mun_code":9,"date":"2017-05-01","name":"TECOMAN, COL","count":16,"rate":143.9378},{"long":-97.0443,"lat":18.7368,"state_code":30,"mun_code":168,"date":"2017-05-01","name":"TEQUILA, VER","count":6,"rate":427.994},{"long":-99.6718,"lat":18.6488,"state_code":12,"mun_code":60,"date":"2017-05-01","name":"TETIPAC, GRO","count":5,"rate":431.2575},{"long":-98.931,"lat":19.5969,"state_code":15,"mun_code":100,"date":"2017-05-01","name":"TEZOYUCA, MEX","count":14,"rate":358.1387},{"long":-95.623,"lat":18.5337,"state_code":30,"mun_code":178,"date":"2017-05-01","name":"TLACOTALPAN, VER","count":10,"rate":878.6338},{"long":-101.1526,"lat":20.1197,"state_code":11,"mun_code":41,"date":"2017-05-01","name":"URIANGATO, GTO","count":6,"rate":109.1404},{"long":-103.7089,"lat":20.3896,"state_code":14,"mun_code":114,"date":"2017-05-01","name":"VILLA CORONA, JAL","count":6,"rate":375.1948},{"long":-96.7666,"lat":16.9497,"state_code":20,"mun_code":565,"date":"2017-05-01","name":"VILLA DE ZAACHILA, OAX","count":9,"rate":267.6195},{"long":-100.9925,"lat":20.542,"state_code":11,"mun_code":44,"date":"2017-05-01","name":"VILLAGRAN, GTO","count":19,"rate":367.1301},{"long":-98.5867,"lat":20.6507,"state_code":13,"mun_code":81,"date":"2017-05-01","name":"ZACUALTIPAN DE ANGELES, HGO","count":8,"rate":247.1685}],"ext":[{"long":-99.3107,"lat":19.3246,"state_code":9,"mun_code":4,"date":"2017-05-01","name":"CUAJIMALPA DE MORELOS, CDMX","count":6,"rate":36.1722},{"long":-99.5883,"lat":19.2474,"state_code":15,"mun_code":54,"date":"2017-05-01","name":"METEPEC, MEX","count":5,"rate":24.2227}]}
