{"hom":[{"long":-111.4735,"lat":29.0237,"state_code":26,"mun_code":30,"date":"2017-01-01","name":"HERMOSILLO, SON","count":22,"rate":28.708},{"long":-109.7533,"lat":23.2766,"state_code":3,"mun_code":8,"date":"2017-01-01","name":"LOS CABOS, BCS","count":28,"rate":100.466},{"long":-106.306,"lat":23.4684,"state_code":25,"mun_code":12,"date":"2017-01-01","name":"MAZATLAN, SIN","count":42,"rate":100.2627},{"long":-99.2046,"lat":19.4281,"state_code":9,"mun_code":16,"date":"2017-01-01","name":"MIGUEL HIDALGO, CDMX","count":5,"rate":15.3213},{"long":-100.4762,"lat":21.3994,"state_code":11,"mun_code":33,"date":"2017-01-01","name":"SAN LUIS DE LA PAZ, GTO","count":5,"rate":46.3659},{"long":-99.5974,"lat":18.52,"state_code":12,"mun_code":55,"date":"2017-01-01","name":"TAXCO DE ALARCON, GRO","count":8,"rate":85.1932},{"long":-103.8696,"lat":18.902,"state_code":6,"mun_code":9,"date":"2017-01-01","name":"TECOMAN, COL","count":28,"rate":253.2764},{"long":-99.3767,"lat":20.0641,"state_code":13,"mun_code":76,"date":"2017-01-01","name":"TULA DE ALLENDE, HGO","count":5,"rate":51.3309},{"long":-103.8444,"lat":19.3096,"state_code":6,"mun_code":10,"date":"2017-01-01","name":"VILLA DE ALVAREZ, COL","count":6,"rate":49.1569}],"rvcv":[{"long":-97.9398,"lat":19.1033,"state_code":21,"mun_code":1,"date":"2017-01-01","name":"ACAJETE, PUE","count":6,"rate":104.0676},{"long":-96.8762,"lat":18.8598,"state_code":30,"mun_code":14,"date":"2017-01-01","name":"AMATLAN DE LOS REYES, VER","count":5,"rate":127.533},{"long":-98.0531,"lat":19.0473,"state_code":21,"mun_code":15,"date":"2017-01-01","name":"AMOZOC, PUE","count":13,"rate":125.2761},{"long":-96.121,"lat":19.1174,"state_code":30,"mun_code":28,"date":"2017-01-01","name":"BOCA DEL RIO, VER","count":10,"rate":82.9161},{"long":-100.7879,"lat":20.5376,"state_code":11,"mun_code":7,"date":"2017-01-01","name":"CELAYA, GTO","count":25,"rate":57.4353},{"long":-98.1347,"lat":19.821,"state_code":21,"mun_code":53,"date":"2017-01-01","name":"CHIGNAHUAPAN, PUE","count":5,"rate":90.3798},{"long":-103.2455,"lat":20.539,"state_code":14,"mun_code":70,"date":"2017-01-01","name":"EL SALTO, JAL","count":10,"rate":72.0292},{"long":-96.9901,"lat":18.9022,"state_code":30,"mun_code":68,"date":"2017-01-01","name":"FORTIN, VER","count":6,"rate":107.0297},{"long":-99.4749,"lat":19.3451,"state_code":15,"mun_code":51,"date":"2017-01-01","name":"LERMA, MEX","count":11,"rate":77.3046},{"long":-100.311,"lat":25.6448,"state_code":19,"mun_code":39,"date":"2017-01-01","name":"MONTERREY, NL","count":20,"rate":19.3528},{"long":-97.2863,"lat":20.4109,"state_code":30,"mun_code":124,"date":"2017-01-01","name":"PAPANTLA, VER","count":19,"rate":133.5697},{"long":-97.2789,"lat":19.5284,"state_code":30,"mun_code":128,"date":"2017-01-01","name":"PEROTE, VER","count":7,"rate":108.7671},{"long":-97.6345,"lat":18.9482,"state_code":21,"mun_code":115,"date":"2017-01-01","name":"QUECHOLAC, PUE","count":6,"rate":134.1369},{"long":-98.4285,"lat":19.269,"state_code":21,"mun_code":132,"date":"2017-01-01","name":"SAN MARTIN TEXMELUCAN, PUE","count":10,"rate":75.0406},{"long":-100.2707,"lat":25.7361,"state_code":19,"mun_code":46,"date":"2017-01-01","name":"SAN NICOLAS DE LOS GARZA, NL","count":17,"rate":43.4464},{"long":-103.3478,"lat":20.5914,"state_code":14,"mun_code":98,"date":"2017-01-01","name":"SAN PEDRO TLAQUEPAQUE, JAL","count":46,"rate":80.4399},{"long":-97.7312,"lat":18.8593,"state_code":21,"mun_code":154,"date":"2017-01-01","name":"TECAMACHALCO, PUE","count":8,"rate":116.6262},{"long":-97.4451,"lat":18.4613,"state_code":21,"mun_code":156,"date":"2017-01-01","name":"TEHUACAN, PUE","count":16,"rate":62.1366},{"long":-96.2865,"lat":18.5498,"state_code":30,"mun_code":174,"date":"2017-01-01","name":"TIERRA BLANCA, VER","count":18,"rate":206.1828},{"long":-116.82,"lat":32.4041,"state_code":2,"mun_code":4,"date":"2017-01-01","name":"TIJUANA, BC","count":87,"rate":57.3092},{"long":-103.4174,"lat":20.4787,"state_code":14,"mun_code":97,"date":"2017-01-01","name":"TLAJOMULCO DE ZUÃ‘IGA, JAL","count":27,"rate":55.6726},{"long":-103.2143,"lat":20.6201,"state_code":14,"mun_code":101,"date":"2017-01-01","name":"TONALA, JAL","count":34,"rate":72.5808},{"long":-92.1987,"lat":14.8941,"state_code":7,"mun_code":102,"date":"2017-01-01","name":"TUXTLA CHICO, CHPS","count":5,"rate":138.5061},{"long":-102.1056,"lat":19.4436,"state_code":16,"mun_code":102,"date":"2017-01-01","name":"URUAPAN, MICH","count":52,"rate":176.0464},{"long":-99.0718,"lat":19.8091,"state_code":15,"mun_code":120,"date":"2017-01-01","name":"ZUMPANGO, MEX","count":29,"rate":174.0579}],"rvsv":[{"long":-97.9398,"lat":19.1033,"state_code":21,"mun_code":1,"date":"2017-01-01","name":"ACAJETE, PUE","count":10,"rate":173.446},{"long":-97.765,"lat":19.0261,"state_code":21,"mun_code":4,"date":"2017-01-01","name":"ACATZINGO, PUE","count":13,"rate":261.0273},{"long":-98.8897,"lat":20.3145,"state_code":13,"mun_code":3,"date":"2017-01-01","name":"ACTOPAN, HGO","count":22,"rate":431.1018},{"long":-109.1332,"lat":25.8956,"state_code":25,"mun_code":1,"date":"2017-01-01","name":"AHOME, SIN","count":57,"rate":144.4612},{"long":-96.8762,"lat":18.8598,"state_code":30,"mun_code":14,"date":"2017-01-01","name":"AMATLAN DE LOS REYES, VER","count":6,"rate":153.0396},{"long":-92.9706,"lat":16.5981,"state_code":7,"mun_code":27,"date":"2017-01-01","name":"CHIAPA DE CORZO, CHPS","count":14,"rate":160.2474},{"long":-98.9472,"lat":19.4162,"state_code":15,"mun_code":31,"date":"2017-01-01","name":"CHIMALHUACAN, MEX","count":38,"rate":60.8722},{"long":-93.3367,"lat":18.2869,"state_code":27,"mun_code":5,"date":"2017-01-01","name":"COMALCALCO, TAB","count":22,"rate":123.6803},{"long":-111.8201,"lat":25.4913,"state_code":3,"mun_code":1,"date":"2017-01-01","name":"COMONDU, BCS","count":12,"rate":168.958},{"long":-103.9208,"lat":19.1881,"state_code":6,"mun_code":4,"date":"2017-01-01","name":"COQUIMATLAN, COL","count":5,"rate":267.0738},{"long":-99.2252,"lat":19.6545,"state_code":15,"mun_code":121,"date":"2017-01-01","name":"CUAUTITLAN IZCALLI, MEX","count":62,"rate":126.9976},{"long":-110.6687,"lat":28.0085,"state_code":26,"mun_code":25,"date":"2017-01-01","name":"EMPALME, SON","count":13,"rate":254.0347},{"long":-114.9585,"lat":30.0362,"state_code":2,"mun_code":1,"date":"2017-01-01","name":"ENSENADA, BC","count":260,"rate":567.3826},{"long":-99.0803,"lat":20.2353,"state_code":13,"mun_code":23,"date":"2017-01-01","name":"FRANCISCO I. MADERO, HGO","count":7,"rate":216.8031},{"long":-100.6598,"lat":25.809,"state_code":19,"mun_code":18,"date":"2017-01-01","name":"GARCIA, NL","count":14,"rate":82.296},{"long":-100.1215,"lat":25.6141,"state_code":19,"mun_code":31,"date":"2017-01-01","name":"JUAREZ, NL","count":26,"rate":85.9456},{"long":-97.8239,"lat":18.9624,"state_code":21,"mun_code":118,"date":"2017-01-01","name":"LOS REYES DE JUAREZ, PUE","count":7,"rate":296.118},{"long":-92.4586,"lat":17.845,"state_code":27,"mun_code":12,"date":"2017-01-01","name":"MACUSPANA, TAB","count":20,"rate":143.5349},{"long":-116.8907,"lat":32.2529,"state_code":2,"mun_code":5,"date":"2017-01-01","name":"PLAYAS DE ROSARITO, BC","count":102,"rate":1095.0606},{"long":-98.1755,"lat":19.0086,"state_code":21,"mun_code":114,"date":"2017-01-01","name":"PUEBLA, PUE","count":224,"rate":157.0928},{"long":-102.7663,"lat":20.0551,"state_code":16,"mun_code":76,"date":"2017-01-01","name":"SAHUAYO, MICH","count":8,"rate":115.4006},{"long":-103.9051,"lat":20.4499,"state_code":14,"mun_code":77,"date":"2017-01-01","name":"SAN MARTIN HIDALGO, JAL","count":11,"rate":451.4807},{"long":-116.269,"lat":32.4409,"state_code":2,"mun_code":3,"date":"2017-01-01","name":"TECATE, BC","count":67,"rate":685.6765},{"long":-104.0242,"lat":20.2592,"state_code":14,"mun_code":88,"date":"2017-01-01","name":"TECOLOTLAN, JAL","count":5,"rate":322.8138},{"long":-97.8762,"lat":19.0119,"state_code":21,"mun_code":164,"date":"2017-01-01","name":"TEPEACA, PUE","count":28,"rate":392.1244},{"long":-96.2865,"lat":18.5498,"state_code":30,"mun_code":174,"date":"2017-01-01","name":"TIERRA BLANCA, VER","count":19,"rate":217.6374},{"long":-116.82,"lat":32.4041,"state_code":2,"mun_code":4,"date":"2017-01-01","name":"TIJUANA, BC","count":943,"rate":621.1785},{"long":-98.3509,"lat":20.1236,"state_code":13,"mun_code":77,"date":"2017-01-01","name":"TULANCINGO DE BRAVO, HGO","count":58,"rate":397.8408},{"long":-99.2353,"lat":18.7619,"state_code":17,"mun_code":28,"date":"2017-01-01","name":"XOCHITEPEC, MOR","count":13,"rate":209.1893}],"lesions":[{"long":-99.078,"lat":20.1198,"state_code":13,"mun_code":5,"date":"2017-01-01","name":"AJACUBA, HGO","count":5,"rate":323.1372},{"long":-103.9984,"lat":19.0092,"state_code":6,"mun_code":1,"date":"2017-01-01","name":"ARMERIA, COL","count":5,"rate":178.8196},{"long":-99.1024,"lat":19.6263,"state_code":15,"mun_code":20,"date":"2017-01-01","name":"COACALCO DE BERRIOZABAL, MEX","count":70,"rate":270.8594},{"long":-98.8589,"lat":19.226,"state_code":15,"mun_code":22,"date":"2017-01-01","name":"COCOTITLAN, MEX","count":6,"rate":530.3503},{"long":-103.6327,"lat":19.1161,"state_code":6,"mun_code":2,"date":"2017-01-01","name":"COLIMA, COL","count":53,"rate":373.5639},{"long":-99.2222,"lat":19.79,"state_code":15,"mun_code":23,"date":"2017-01-01","name":"COYOTEPEC, MEX","count":18,"rate":495.9835},{"long":-98.5142,"lat":22.2042,"state_code":24,"mun_code":16,"date":"2017-01-01","name":"EBANO, SLP","count":5,"rate":129.409},{"long":-93.9572,"lat":17.5358,"state_code":30,"mun_code":61,"date":"2017-01-01","name":"LAS CHOAPAS, VER","count":6,"rate":83.516},{"long":-90.0697,"lat":20.6219,"state_code":31,"mun_code":48,"date":"2017-01-01","name":"MAXCANU, YUC","count":7,"rate":344.6842},{"long":-101.7151,"lat":21.8108,"state_code":14,"mun_code":64,"date":"2017-01-01","name":"OJUELOS DE JALISCO, JAL","count":7,"rate":251.2683},{"long":-101.599,"lat":19.4945,"state_code":16,"mun_code":66,"date":"2017-01-01","name":"PATZCUARO, MICH","count":20,"rate":247.2882},{"long":-96.7486,"lat":17.019,"state_code":20,"mun_code":385,"date":"2017-01-01","name":"SANTA CRUZ XOXOCOTLAN, OAX","count":13,"rate":171.488},{"long":-93.1373,"lat":16.7394,"state_code":7,"mun_code":101,"date":"2017-01-01","name":"TUXTLA GUTIERREZ, CHPS","count":23,"rate":42.6971},{"long":-103.8444,"lat":19.3096,"state_code":6,"mun_code":10,"date":"2017-01-01","name":"VILLA DE ALVAREZ, COL","count":19,"rate":155.6635}],"ext":[{"long":-102.2958,"lat":21.8114,"state_code":1,"mun_code":1,"date":"2017-01-01","name":"AGUASCALIENTES, AGS","count":10,"rate":13.1635},{"long":-100.1873,"lat":25.7923,"state_code":19,"mun_code":6,"date":"2017-01-01","name":"APODACA, NL","count":8,"rate":14.9742},{"long":-93.6468,"lat":18.1702,"state_code":27,"mun_code":2,"date":"2017-01-01","name":"CARDENAS, TAB","count":5,"rate":21.6264},{"long":-92.8602,"lat":18.0091,"state_code":27,"mun_code":4,"date":"2017-01-01","name":"CENTRO, TAB","count":18,"rate":29.7393},{"long":-96.9385,"lat":18.9324,"state_code":30,"mun_code":44,"date":"2017-01-01","name":"CORDOBA, VER","count":8,"rate":44.6242},{"long":-109.7533,"lat":23.2766,"state_code":3,"mun_code":8,"date":"2017-01-01","name":"LOS CABOS, BCS","count":17,"rate":60.9972},{"long":-97.1744,"lat":20.0236,"state_code":30,"mun_code":183,"date":"2017-01-01","name":"TLAPACOYAN, VER","count":8,"rate":150.8243}]}
