{"hom":[{"long":-103.6327,"lat":19.1161,"state_code":6,"mun_code":2,"date":"2016-04-01","name":"COLIMA, COL","count":19,"rate":139.8807},{"long":-102.7663,"lat":20.0551,"state_code":16,"mun_code":76,"date":"2016-04-01","name":"SAHUAYO, MICH","count":9,"rate":135.0169},{"long":-92.3048,"lat":14.934,"state_code":7,"mun_code":89,"date":"2016-04-01","name":"TAPACHULA, CHPS","count":11,"rate":36.6789},{"long":-103.8696,"lat":18.902,"state_code":6,"mun_code":9,"date":"2016-04-01","name":"TECOMAN, COL","count":27,"rate":255.5407},{"long":-99.3675,"lat":17.5994,"state_code":12,"mun_code":61,"date":"2016-04-01","name":"TIXTLA DE GUERRERO, GRO","count":5,"rate":141.8507},{"long":-99.1667,"lat":23.697,"state_code":28,"mun_code":41,"date":"2016-04-01","name":"VICTORIA, TAM","count":18,"rate":60.6362}],"rvcv":[{"long":-102.5839,"lat":19.2039,"state_code":16,"mun_code":12,"date":"2016-04-01","name":"BUENAVISTA, MICH","count":8,"rate":214.0755},{"long":-99.6433,"lat":19.1655,"state_code":15,"mun_code":18,"date":"2016-04-01","name":"CALIMAYA, MEX","count":5,"rate":108.2368},{"long":-100.7879,"lat":20.5376,"state_code":11,"mun_code":7,"date":"2016-04-01","name":"CELAYA, GTO","count":15,"rate":35.8194},{"long":-96.9385,"lat":18.9324,"state_code":30,"mun_code":44,"date":"2016-04-01","name":"CORDOBA, VER","count":12,"rate":69.5263},{"long":-96.6595,"lat":18.7763,"state_code":30,"mun_code":53,"date":"2016-04-01","name":"CUITLAHUAC, VER","count":7,"rate":293.2449},{"long":-102.4076,"lat":22.7802,"state_code":32,"mun_code":17,"date":"2016-04-01","name":"GUADALUPE, ZAC","count":5,"rate":32.7204},{"long":-97.4385,"lat":20.53,"state_code":30,"mun_code":131,"date":"2016-04-01","name":"POZA RICA DE HIDALGO, VER","count":25,"rate":147.0098},{"long":-98.1755,"lat":19.0086,"state_code":21,"mun_code":114,"date":"2016-04-01","name":"PUEBLA, PUE","count":76,"rate":55.416},{"long":-92.5899,"lat":16.6783,"state_code":7,"mun_code":78,"date":"2016-04-01","name":"SAN CRISTOBAL DE LAS CASAS, CHPS","count":13,"rate":74.6404},{"long":-106.3702,"lat":23.9545,"state_code":25,"mun_code":16,"date":"2016-04-01","name":"SAN IGNACIO, SIN","count":8,"rate":418.1367},{"long":-99.5139,"lat":20.0518,"state_code":15,"mun_code":79,"date":"2016-04-01","name":"SOYANIQUILPAN DE JUAREZ, MEX","count":5,"rate":453.3092},{"long":-98.9612,"lat":19.8525,"state_code":13,"mun_code":69,"date":"2016-04-01","name":"TIZAYUCA, HGO","count":6,"rate":55.5268},{"long":-99.1453,"lat":19.6262,"state_code":15,"mun_code":109,"date":"2016-04-01","name":"TULTITLAN, MEX","count":97,"rate":194.9328},{"long":-93.1373,"lat":16.7394,"state_code":7,"mun_code":101,"date":"2016-04-01","name":"TUXTLA GUTIERREZ, CHPS","count":6,"rate":11.6159},{"long":-103.4942,"lat":20.7949,"state_code":14,"mun_code":120,"date":"2016-04-01","name":"ZAPOPAN, JAL","count":78,"rate":69.1628}],"rvsv":[{"long":-103.1879,"lat":20.2599,"state_code":14,"mun_code":30,"date":"2016-04-01","name":"CHAPALA, JAL","count":8,"rate":180.4511},{"long":-103.8245,"lat":20.3904,"state_code":14,"mun_code":24,"date":"2016-04-01","name":"COCULA, JAL","count":5,"rate":218.4678},{"long":-97.029,"lat":18.8506,"state_code":30,"mun_code":85,"date":"2016-04-01","name":"IXTACZOQUITLAN, VER","count":6,"rate":103.4186},{"long":-93.0839,"lat":18.2133,"state_code":27,"mun_code":10,"date":"2016-04-01","name":"JALPA DE MENDEZ, TAB","count":7,"rate":93.5954},{"long":-95.3659,"lat":17.9815,"state_code":30,"mun_code":94,"date":"2016-04-01","name":"JUAN RODRIGUEZ CLARA, VER","count":5,"rate":152.5514},{"long":-97.8165,"lat":19.2479,"state_code":21,"mun_code":117,"date":"2016-04-01","name":"RAFAEL LARA GRAJALES, PUE","count":6,"rate":471.9145},{"long":-97.7723,"lat":18.9265,"state_code":21,"mun_code":144,"date":"2016-04-01","name":"SAN SALVADOR HUIXCOLOTLA, PUE","count":6,"rate":482.8002},{"long":-100.8551,"lat":22.2716,"state_code":24,"mun_code":35,"date":"2016-04-01","name":"SOLEDAD DE GRACIANO SANCHEZ, SLP","count":27,"rate":106.511},{"long":-92.3048,"lat":14.934,"state_code":7,"mun_code":89,"date":"2016-04-01","name":"TAPACHULA, CHPS","count":34,"rate":113.3711},{"long":-99.1682,"lat":19.7622,"state_code":15,"mun_code":91,"date":"2016-04-01","name":"TEOLOYUCAN, MEX","count":13,"rate":247.9812},{"long":-94.3559,"lat":17.2769,"state_code":30,"mun_code":210,"date":"2016-04-01","name":"UXPANAPA, VER","count":5,"rate":204.8341}],"lesions":[{"long":-104.3122,"lat":19.7435,"state_code":14,"mun_code":15,"date":"2016-04-01","name":"AUTLAN DE NAVARRO, JAL","count":17,"rate":328.9155},{"long":-87.0469,"lat":21.0124,"state_code":23,"mun_code":5,"date":"2016-04-01","name":"BENITO JUAREZ, QROO","count":23,"rate":34.4664},{"long":-112.5395,"lat":30.825,"state_code":26,"mun_code":17,"date":"2016-04-01","name":"CABORCA, SON","count":18,"rate":233.6853},{"long":-103.1879,"lat":20.2599,"state_code":14,"mun_code":30,"date":"2016-04-01","name":"CHAPALA, JAL","count":11,"rate":248.1203},{"long":-98.8967,"lat":19.5563,"state_code":15,"mun_code":30,"date":"2016-04-01","name":"CHICONCUAC, MEX","count":15,"rate":682.4903},{"long":-101.1118,"lat":19.9806,"state_code":16,"mun_code":20,"date":"2016-04-01","name":"CUITZEO, MICH","count":8,"rate":324.9281},{"long":-107.0339,"lat":26.168,"state_code":8,"mun_code":29,"date":"2016-04-01","name":"GUADALUPE Y CALVO, CHIH","count":5,"rate":104.2608},{"long":-109.4064,"lat":26.6507,"state_code":26,"mun_code":33,"date":"2016-04-01","name":"HUATABAMPO, SON","count":20,"rate":279.7496},{"long":-102.4893,"lat":21.1917,"state_code":14,"mun_code":46,"date":"2016-04-01","name":"JALOSTOTITLAN, JAL","count":8,"rate":275.6482},{"long":-103.4172,"lat":20.3145,"state_code":14,"mun_code":50,"date":"2016-04-01","name":"JOCOTEPEC, JAL","count":5,"rate":131.3313},{"long":-88.8176,"lat":19.6408,"state_code":23,"mun_code":6,"date":"2016-04-01","name":"JOSE MARIA MORELOS, QROO","count":14,"rate":398.2553},{"long":-104.3027,"lat":19.1495,"state_code":6,"mun_code":7,"date":"2016-04-01","name":"MANZANILLO, COL","count":25,"rate":162.7798},{"long":-101.2791,"lat":19.6666,"state_code":16,"mun_code":53,"date":"2016-04-01","name":"MORELIA, MICH","count":191,"rate":296.8158},{"long":-98.8579,"lat":19.5599,"state_code":15,"mun_code":69,"date":"2016-04-01","name":"PAPALOTLA, MEX","count":6,"rate":1543.7393},{"long":-102.8947,"lat":20.2702,"state_code":14,"mun_code":66,"date":"2016-04-01","name":"PONCITLAN, JAL","count":8,"rate":183.7215},{"long":-113.2931,"lat":31.5294,"state_code":26,"mun_code":48,"date":"2016-04-01","name":"PUERTO PEÃ‘ASCO, SON","count":12,"rate":211.1499},{"long":-100.8464,"lat":21.4422,"state_code":11,"mun_code":29,"date":"2016-04-01","name":"SAN DIEGO DE LA UNION, GTO","count":12,"rate":371.92},{"long":-97.9013,"lat":22.2786,"state_code":28,"mun_code":38,"date":"2016-04-01","name":"TAMPICO, TAM","count":6,"rate":23.1522},{"long":-103.8696,"lat":18.902,"state_code":6,"mun_code":9,"date":"2016-04-01","name":"TECOMAN, COL","count":15,"rate":141.967},{"long":-103.781,"lat":21.1125,"state_code":14,"mun_code":94,"date":"2016-04-01","name":"TEQUILA, JAL","count":5,"rate":139.2338},{"long":-99.4322,"lat":19.1623,"state_code":15,"mun_code":101,"date":"2016-04-01","name":"TIANGUISTENCO, MEX","count":10,"rate":150.6951}],"ext":[{"long":-100.6598,"lat":25.809,"state_code":19,"mun_code":18,"date":"2016-04-01","name":"GARCIA, NL","count":5,"rate":31.0145}]}
