{"hom":[{"long":-97.1273,"lat":19.7763,"state_code":30,"mun_code":10,"date":"2016-10-01","name":"ALTOTONGA, VER","count":5,"rate":91.9528},{"long":-102.7468,"lat":22.9569,"state_code":32,"mun_code":5,"date":"2016-10-01","name":"CALERA, ZAC","count":5,"rate":134.971},{"long":-98.8317,"lat":19.2536,"state_code":15,"mun_code":25,"date":"2016-10-01","name":"CHALCO, MEX","count":11,"rate":34.4186},{"long":-106.2325,"lat":29.0006,"state_code":8,"mun_code":19,"date":"2016-10-01","name":"CHIHUAHUA, CHIH","count":51,"rate":64.1247},{"long":-99.0632,"lat":22.1074,"state_code":24,"mun_code":13,"date":"2016-10-01","name":"CIUDAD VALLES, SLP","count":5,"rate":32.1189},{"long":-105.6858,"lat":22.7241,"state_code":25,"mun_code":9,"date":"2016-10-01","name":"ESCUINAPA, SIN","count":6,"rate":117.3179},{"long":-95.5584,"lat":18.0821,"state_code":30,"mun_code":77,"date":"2016-10-01","name":"ISLA, VER","count":6,"rate":153.0161},{"long":-106.5641,"lat":31.4497,"state_code":8,"mun_code":37,"date":"2016-10-01","name":"JUAREZ, CHIH","count":78,"rate":62.8977},{"long":-101.7885,"lat":20.9191,"state_code":11,"mun_code":31,"date":"2016-10-01","name":"SAN FRANCISCO DEL RINCON, GTO","count":6,"rate":57.9202},{"long":-100.3748,"lat":25.6446,"state_code":19,"mun_code":19,"date":"2016-10-01","name":"SAN PEDRO GARZA GARCIA, NL","count":5,"rate":43.7216}],"rvcv":[{"long":-94.1608,"lat":18.0849,"state_code":30,"mun_code":204,"date":"2016-10-01","name":"AGUA DULCE, VER","count":8,"rate":192.6693},{"long":-98.0531,"lat":19.0473,"state_code":21,"mun_code":15,"date":"2016-10-01","name":"AMOZOC, PUE","count":7,"rate":67.7188},{"long":-109.8868,"lat":27.7928,"state_code":26,"mun_code":18,"date":"2016-10-01","name":"CAJEME, SON","count":17,"rate":43.3731},{"long":-100.7879,"lat":20.5376,"state_code":11,"mun_code":7,"date":"2016-10-01","name":"CELAYA, GTO","count":20,"rate":46.0369},{"long":-92.0878,"lat":15.7627,"state_code":7,"mun_code":34,"date":"2016-10-01","name":"FRONTERA COMALAPA, CHPS","count":7,"rate":105.9668},{"long":-106.5641,"lat":31.4497,"state_code":8,"mun_code":37,"date":"2016-10-01","name":"JUAREZ, CHIH","count":48,"rate":38.7063},{"long":-93.9572,"lat":17.5358,"state_code":30,"mun_code":61,"date":"2016-10-01","name":"LAS CHOAPAS, VER","count":11,"rate":153.4585},{"long":-109.4027,"lat":27.0781,"state_code":26,"mun_code":42,"date":"2016-10-01","name":"NAVOJOA, SON","count":8,"rate":53.1696},{"long":-111.0024,"lat":31.1988,"state_code":26,"mun_code":43,"date":"2016-10-01","name":"NOGALES, SON","count":5,"rate":23.218},{"long":-98.4285,"lat":19.269,"state_code":21,"mun_code":132,"date":"2016-10-01","name":"SAN MARTIN TEXMELUCAN, PUE","count":9,"rate":67.7045},{"long":-116.82,"lat":32.4041,"state_code":2,"mun_code":4,"date":"2016-10-01","name":"TIJUANA, BC","count":63,"rate":41.6503},{"long":-96.2217,"lat":19.1858,"state_code":30,"mun_code":193,"date":"2016-10-01","name":"VERACRUZ, VER","count":44,"rate":86.4915},{"long":-101.909,"lat":19.4285,"state_code":16,"mun_code":111,"date":"2016-10-01","name":"ZIRACUARETIRO, MICH","count":6,"rate":429.0746}],"rvsv":[{"long":-95.0326,"lat":18.0367,"state_code":30,"mun_code":3,"date":"2016-10-01","name":"ACAYUCAN, VER","count":20,"rate":261.9678},{"long":-94.1608,"lat":18.0849,"state_code":30,"mun_code":204,"date":"2016-10-01","name":"AGUA DULCE, VER","count":18,"rate":433.506},{"long":-102.2958,"lat":21.8114,"state_code":1,"mun_code":1,"date":"2016-10-01","name":"AGUASCALIENTES, AGS","count":264,"rate":348.5903},{"long":-99.2252,"lat":19.6545,"state_code":15,"mun_code":121,"date":"2016-10-01","name":"CUAUTITLAN IZCALLI, MEX","count":63,"rate":129.4226},{"long":-98.2561,"lat":19.1167,"state_code":21,"mun_code":41,"date":"2016-10-01","name":"CUAUTLANCINGO, PUE","count":7,"rate":81.8115},{"long":-92.5469,"lat":15.097,"state_code":7,"mun_code":40,"date":"2016-10-01","name":"HUIXTLA, CHPS","count":8,"rate":166.4157},{"long":-93.9572,"lat":17.5358,"state_code":30,"mun_code":61,"date":"2016-10-01","name":"LAS CHOAPAS, VER","count":22,"rate":306.917},{"long":-109.7533,"lat":23.2766,"state_code":3,"mun_code":8,"date":"2016-10-01","name":"LOS CABOS, BCS","count":70,"rate":253.3214},{"long":-99.8084,"lat":25.1263,"state_code":19,"mun_code":38,"date":"2016-10-01","name":"MONTEMORELOS, NL","count":8,"rate":143.1439},{"long":-94.3914,"lat":18.0628,"state_code":30,"mun_code":206,"date":"2016-10-01","name":"NANCHITAL DE LAZARO CARDENAS DEL RIO, VER","count":6,"rate":246.7156},{"long":-98.1972,"lat":19.1723,"state_code":29,"mun_code":41,"date":"2016-10-01","name":"PAPALOTLA DE XICOHTENCATL, TLAX","count":8,"rate":309.6774},{"long":-97.9248,"lat":22.1581,"state_code":30,"mun_code":133,"date":"2016-10-01","name":"PUEBLO VIEJO, VER","count":7,"rate":140.3929},{"long":-102.2487,"lat":19.8726,"state_code":16,"mun_code":85,"date":"2016-10-01","name":"TANGANCICUARO, MICH","count":11,"rate":372.4798},{"long":-116.269,"lat":32.4409,"state_code":2,"mun_code":3,"date":"2016-10-01","name":"TECATE, BC","count":67,"rate":687.9378},{"long":-98.3509,"lat":20.1236,"state_code":13,"mun_code":77,"date":"2016-10-01","name":"TULANCINGO DE BRAVO, HGO","count":48,"rate":330.3108}],"lesions":[{"long":-103.6088,"lat":20.4285,"state_code":14,"mun_code":2,"date":"2016-10-01","name":"ACATLAN DE JUAREZ, JAL","count":13,"rate":615.6169},{"long":-100.3421,"lat":17.3328,"state_code":12,"mun_code":11,"date":"2016-10-01","name":"ATOYAC DE ALVAREZ, GRO","count":14,"rate":256.5051},{"long":-102.3429,"lat":20.4888,"state_code":14,"mun_code":16,"date":"2016-10-01","name":"AYOTLAN, JAL","count":7,"rate":196.2065},{"long":-90.2676,"lat":19.617,"state_code":4,"mun_code":2,"date":"2016-10-01","name":"CAMPECHE, CAMP","count":8,"rate":31.8148},{"long":-98.9497,"lat":21.1284,"state_code":13,"mun_code":18,"date":"2016-10-01","name":"CHAPULHUACAN, HGO","count":6,"rate":296.0839},{"long":-100.9299,"lat":18.0818,"state_code":12,"mun_code":22,"date":"2016-10-01","name":"COYUCA DE CATALAN, GRO","count":8,"rate":220.4057},{"long":-100.3568,"lat":25.9007,"state_code":19,"mun_code":10,"date":"2016-10-01","name":"EL CARMEN, NL","count":14,"rate":730.7981},{"long":-102.0354,"lat":21.9215,"state_code":1,"mun_code":10,"date":"2016-10-01","name":"EL LLANO, AGS","count":5,"rate":282.0994},{"long":-95.3659,"lat":17.9815,"state_code":30,"mun_code":94,"date":"2016-10-01","name":"JUAN RODRIGUEZ CLARA, VER","count":5,"rate":147.1441},{"long":-102.5233,"lat":20.3638,"state_code":14,"mun_code":18,"date":"2016-10-01","name":"LA BARCA, JAL","count":7,"rate":117.8411},{"long":-90.0697,"lat":20.6219,"state_code":31,"mun_code":48,"date":"2016-10-01","name":"MAXCANU, YUC","count":11,"rate":543.3053},{"long":-100.9904,"lat":20.1582,"state_code":11,"mun_code":36,"date":"2016-10-01","name":"SANTIAGO MARAVATIO, GTO","count":5,"rate":847.2861},{"long":-98.9865,"lat":19.7058,"state_code":15,"mun_code":81,"date":"2016-10-01","name":"TECAMAC, MEX","count":111,"rate":281.7686},{"long":-99.9141,"lat":18.3583,"state_code":12,"mun_code":58,"date":"2016-10-01","name":"TELOLOAPAN, GRO","count":6,"rate":125.6219},{"long":-99.6877,"lat":18.9743,"state_code":15,"mun_code":113,"date":"2016-10-01","name":"VILLA GUERRERO, MEX","count":23,"rate":385.5713}],"ext":[{"long":-99.0432,"lat":19.5728,"state_code":15,"mun_code":33,"date":"2016-10-01","name":"ECATEPEC DE MORELOS, MEX","count":28,"rate":18.207}]}
