{"hom":[{"long":-103.5955,"lat":19.3268,"state_code":6,"mun_code":5,"date":"2016-06-01","name":"CUAUHTEMOC, COL","count":8,"rate":330.4875},{"long":-94.9311,"lat":16.3816,"state_code":20,"mun_code":43,"date":"2016-06-01","name":"HEROICA CIUDAD DE JUCHITAN DE ZARAGOZA, OAX","count":14,"rate":168.4802},{"long":-102.3751,"lat":18.0885,"state_code":16,"mun_code":52,"date":"2016-06-01","name":"LAZARO CARDENAS, MICH","count":5,"rate":31.3717},{"long":-99.0511,"lat":19.1395,"state_code":9,"mun_code":9,"date":"2016-06-01","name":"MILPA ALTA, CDMX","count":5,"rate":43.7009},{"long":-99.3917,"lat":19.625,"state_code":15,"mun_code":60,"date":"2016-06-01","name":"NICOLAS ROMERO, MEX","count":6,"rate":16.632},{"long":-97.4385,"lat":20.53,"state_code":30,"mun_code":131,"date":"2016-06-01","name":"POZA RICA DE HIDALGO, VER","count":9,"rate":52.8671},{"long":-101.1651,"lat":20.6251,"state_code":11,"mun_code":27,"date":"2016-06-01","name":"SALAMANCA, GTO","count":7,"rate":30.2025},{"long":-102.2641,"lat":20.033,"state_code":16,"mun_code":108,"date":"2016-06-01","name":"ZAMORA, MICH","count":11,"rate":67.05}],"rvcv":[{"long":-100.6217,"lat":20.5755,"state_code":11,"mun_code":5,"date":"2016-06-01","name":"APASEO EL GRANDE, GTO","count":5,"rate":64.8761},{"long":-98.8317,"lat":19.2536,"state_code":15,"mun_code":25,"date":"2016-06-01","name":"CHALCO, MEX","count":26,"rate":84.5813},{"long":-111.4735,"lat":29.0237,"state_code":26,"mun_code":30,"date":"2016-06-01","name":"HERMOSILLO, SON","count":17,"rate":23.1105},{"long":-99.5821,"lat":18.2268,"state_code":12,"mun_code":35,"date":"2016-06-01","name":"IGUALA DE LA INDEPENDENCIA, GRO","count":19,"rate":151.6401},{"long":-102.1238,"lat":18.9711,"state_code":16,"mun_code":55,"date":"2016-06-01","name":"MUGICA, MICH","count":8,"rate":199.5012},{"long":-97.2863,"lat":20.4109,"state_code":30,"mun_code":124,"date":"2016-06-01","name":"PAPANTLA, VER","count":9,"rate":65.5865},{"long":-99.9771,"lat":25.7368,"state_code":19,"mun_code":41,"date":"2016-06-01","name":"PESQUERIA, NL","count":5,"rate":210.0693},{"long":-98.2932,"lat":19.0236,"state_code":21,"mun_code":119,"date":"2016-06-01","name":"SAN ANDRES CHOLULA, PUE","count":5,"rate":50.7378},{"long":-114.3513,"lat":32.017,"state_code":26,"mun_code":55,"date":"2016-06-01","name":"SAN LUIS RIO COLORADO, SON","count":5,"rate":29.931},{"long":-116.82,"lat":32.4041,"state_code":2,"mun_code":4,"date":"2016-06-01","name":"TIJUANA, BC","count":11,"rate":7.5512},{"long":-93.1373,"lat":16.7394,"state_code":7,"mun_code":101,"date":"2016-06-01","name":"TUXTLA GUTIERREZ, CHPS","count":25,"rate":48.2965},{"long":-102.2641,"lat":20.033,"state_code":16,"mun_code":108,"date":"2016-06-01","name":"ZAMORA, MICH","count":10,"rate":60.9545},{"long":-103.4942,"lat":20.7949,"state_code":14,"mun_code":120,"date":"2016-06-01","name":"ZAPOPAN, JAL","count":52,"rate":46.0198},{"long":-101.4342,"lat":17.8201,"state_code":12,"mun_code":38,"date":"2016-06-01","name":"ZIHUATANEJO DE AZUETA, GRO","count":28,"rate":258.1855},{"long":-101.909,"lat":19.4285,"state_code":16,"mun_code":111,"date":"2016-06-01","name":"ZIRACUARETIRO, MICH","count":5,"rate":370.3704}],"rvsv":[{"long":-98.0531,"lat":19.0473,"state_code":21,"mun_code":15,"date":"2016-06-01","name":"AMOZOC, PUE","count":20,"rate":200.973},{"long":-98.1271,"lat":19.4235,"state_code":29,"mun_code":5,"date":"2016-06-01","name":"APIZACO, TLAX","count":33,"rate":476.0245},{"long":-98.7521,"lat":18.5252,"state_code":17,"mun_code":3,"date":"2016-06-01","name":"AXOCHIAPAN, MOR","count":5,"rate":163.7286},{"long":-91.4832,"lat":18.524,"state_code":4,"mun_code":3,"date":"2016-06-01","name":"CARMEN, CAMP","count":22,"rate":105.2921},{"long":-103.8245,"lat":20.3904,"state_code":14,"mun_code":24,"date":"2016-06-01","name":"COCULA, JAL","count":7,"rate":305.5212},{"long":-101.1051,"lat":18.6539,"state_code":16,"mun_code":38,"date":"2016-06-01","name":"HUETAMO, MICH","count":5,"rate":141.6631},{"long":-93.6998,"lat":17.8264,"state_code":27,"mun_code":8,"date":"2016-06-01","name":"HUIMANGUILLO, TAB","count":21,"rate":133.1052},{"long":-95.5584,"lat":18.0821,"state_code":30,"mun_code":77,"date":"2016-06-01","name":"ISLA, VER","count":9,"rate":237.854},{"long":-93.0839,"lat":18.2133,"state_code":27,"mun_code":10,"date":"2016-06-01","name":"JALPA DE MENDEZ, TAB","count":6,"rate":80.0872},{"long":-98.7647,"lat":18.6854,"state_code":17,"mun_code":10,"date":"2016-06-01","name":"JANTETELCO, MOR","count":6,"rate":415.4645},{"long":-101.8797,"lat":21.494,"state_code":14,"mun_code":53,"date":"2016-06-01","name":"LAGOS DE MORENO, JAL","count":13,"rate":92.5618},{"long":-98.1972,"lat":19.1723,"state_code":29,"mun_code":41,"date":"2016-06-01","name":"PAPALOTLA DE XICOHTENCATL, TLAX","count":6,"rate":241.0526},{"long":-99.9771,"lat":25.7368,"state_code":19,"mun_code":41,"date":"2016-06-01","name":"PESQUERIA, NL","count":5,"rate":210.0693},{"long":-105.8052,"lat":23.0562,"state_code":25,"mun_code":14,"date":"2016-06-01","name":"ROSARIO, SIN","count":6,"rate":136.9941},{"long":-99.2722,"lat":18.8425,"state_code":17,"mun_code":18,"date":"2016-06-01","name":"TEMIXCO, MOR","count":23,"rate":233.6884},{"long":-99.1682,"lat":19.7622,"state_code":15,"mun_code":91,"date":"2016-06-01","name":"TEOLOYUCAN, MEX","count":19,"rate":362.0887},{"long":-97.543,"lat":18.5539,"state_code":21,"mun_code":161,"date":"2016-06-01","name":"TEPANCO DE LOPEZ, PUE","count":5,"rate":286.1913},{"long":-102.7208,"lat":20.8148,"state_code":14,"mun_code":93,"date":"2016-06-01","name":"TEPATITLAN DE MORELOS, JAL","count":34,"rate":277.0836},{"long":-102.6662,"lat":20.1431,"state_code":16,"mun_code":103,"date":"2016-06-01","name":"VENUSTIANO CARRANZA, MICH","count":5,"rate":243.843}],"lesions":[{"long":-103.6088,"lat":20.4285,"state_code":14,"mun_code":2,"date":"2016-06-01","name":"ACATLAN DE JUAREZ, JAL","count":5,"rate":245.3486},{"long":-109.1974,"lat":31.1044,"state_code":26,"mun_code":2,"date":"2016-06-01","name":"AGUA PRIETA, SON","count":21,"rate":282.7109},{"long":-103.9354,"lat":20.7115,"state_code":14,"mun_code":3,"date":"2016-06-01","name":"AHUALULCO DE MERCADO, JAL","count":5,"rate":265.8278},{"long":-100.0254,"lat":27.3422,"state_code":19,"mun_code":5,"date":"2016-06-01","name":"ANAHUAC, NL","count":5,"rate":309.2943},{"long":-107.396,"lat":25.5909,"state_code":25,"mun_code":3,"date":"2016-06-01","name":"BADIRAGUATO, SIN","count":7,"rate":276.99},{"long":-112.5395,"lat":30.825,"state_code":26,"mun_code":17,"date":"2016-06-01","name":"CABORCA, SON","count":26,"rate":336.6931},{"long":-109.8868,"lat":27.7928,"state_code":26,"mun_code":18,"date":"2016-06-01","name":"CAJEME, SON","count":51,"rate":135.0067},{"long":-104.4702,"lat":19.6029,"state_code":14,"mun_code":21,"date":"2016-06-01","name":"CASIMIRO CASTILLO, JAL","count":6,"rate":304.5943},{"long":-104.6149,"lat":19.2774,"state_code":14,"mun_code":22,"date":"2016-06-01","name":"CIHUATLAN, JAL","count":9,"rate":235.983},{"long":-97.8284,"lat":22.2795,"state_code":28,"mun_code":9,"date":"2016-06-01","name":"CIUDAD MADERO, TAM","count":14,"rate":79.6529},{"long":-111.8201,"lat":25.4913,"state_code":3,"mun_code":1,"date":"2016-06-01","name":"COMONDU, BCS","count":18,"rate":265.441},{"long":-96.9385,"lat":18.9324,"state_code":30,"mun_code":44,"date":"2016-06-01","name":"CORDOBA, VER","count":28,"rate":162.0378},{"long":-100.9384,"lat":20.4291,"state_code":11,"mun_code":11,"date":"2016-06-01","name":"CORTAZAR, GTO","count":21,"rate":273.7762},{"long":-101.668,"lat":20.6152,"state_code":11,"mun_code":12,"date":"2016-06-01","name":"CUERAMARO, GTO","count":12,"rate":491.8537},{"long":-103.4906,"lat":25.728,"state_code":10,"mun_code":7,"date":"2016-06-01","name":"GOMEZ PALACIO, DGO","count":107,"rate":358.9962},{"long":-107.2478,"lat":27.1504,"state_code":8,"mun_code":27,"date":"2016-06-01","name":"GUACHOCHI, CHIH","count":10,"rate":218.2056},{"long":-110.6259,"lat":28.1426,"state_code":26,"mun_code":29,"date":"2016-06-01","name":"GUAYMAS, SON","count":24,"rate":172.8411},{"long":-103.2074,"lat":20.3916,"state_code":14,"mun_code":44,"date":"2016-06-01","name":"IXTLAHUACAN DE LOS MEMBRILLOS, JAL","count":7,"rate":152.608},{"long":-93.0839,"lat":18.2133,"state_code":27,"mun_code":10,"date":"2016-06-01","name":"JALPA DE MENDEZ, TAB","count":29,"rate":387.0882},{"long":-103.4172,"lat":20.3145,"state_code":14,"mun_code":50,"date":"2016-06-01","name":"JOCOTEPEC, JAL","count":6,"rate":157.3186},{"long":-111.0214,"lat":30.7314,"state_code":26,"mun_code":36,"date":"2016-06-01","name":"MAGDALENA, SON","count":12,"rate":425.2303},{"long":-103.2151,"lat":25.5598,"state_code":5,"mun_code":17,"date":"2016-06-01","name":"MATAMOROS, COAH","count":38,"rate":397.1122},{"long":-111.0024,"lat":31.1988,"state_code":26,"mun_code":43,"date":"2016-06-01","name":"NOGALES, SON","count":50,"rate":241.1401},{"long":-99.6738,"lat":27.4758,"state_code":28,"mun_code":27,"date":"2016-06-01","name":"NUEVO LAREDO, TAM","count":26,"rate":74.4158},{"long":-98.7822,"lat":20.1021,"state_code":13,"mun_code":48,"date":"2016-06-01","name":"PACHUCA DE SOTO, HGO","count":116,"rate":510.0358},{"long":-101.8158,"lat":20.4016,"state_code":11,"mun_code":23,"date":"2016-06-01","name":"PENJAMO, GTO","count":26,"rate":198.2211},{"long":-99.9771,"lat":25.7368,"state_code":19,"mun_code":41,"date":"2016-06-01","name":"PESQUERIA, NL","count":17,"rate":714.2357},{"long":-100.9151,"lat":20.2076,"state_code":11,"mun_code":28,"date":"2016-06-01","name":"SALVATIERRA, GTO","count":28,"rate":336.8522},{"long":-97.9013,"lat":22.2786,"state_code":28,"mun_code":38,"date":"2016-06-01","name":"TAMPICO, TAM","count":34,"rate":131.0599},{"long":-99.6293,"lat":19.0817,"state_code":15,"mun_code":90,"date":"2016-06-01","name":"TENANGO DEL VALLE, MEX","count":6,"rate":80.6994},{"long":-103.781,"lat":21.1125,"state_code":14,"mun_code":94,"date":"2016-06-01","name":"TEQUILA, JAL","count":5,"rate":139.0112},{"long":-103.2489,"lat":25.1701,"state_code":5,"mun_code":35,"date":"2016-06-01","name":"TORREON, COAH","count":108,"rate":184.9695},{"long":-102.9337,"lat":21.1379,"state_code":14,"mun_code":118,"date":"2016-06-01","name":"YAHUALICA DE GONZALEZ GALLO, JAL","count":6,"rate":318.5136}],"ext":[{"long":-99.7143,"lat":16.9572,"state_code":12,"mun_code":1,"date":"2016-06-01","name":"ACAPULCO DE JUAREZ, GRO","count":22,"rate":31.1012},{"long":-109.8868,"lat":27.7928,"state_code":26,"mun_code":18,"date":"2016-06-01","name":"CAJEME, SON","count":5,"rate":13.2359},{"long":-111.8201,"lat":25.4913,"state_code":3,"mun_code":1,"date":"2016-06-01","name":"COMONDU, BCS","count":8,"rate":117.9738},{"long":-111.0024,"lat":31.1988,"state_code":26,"mun_code":43,"date":"2016-06-01","name":"NOGALES, SON","count":5,"rate":24.114}]}
