{"hom":[{"long":-95.0326,"lat":18.0367,"state_code":30,"mun_code":3,"date":"2017-07-01","name":"ACAYUCAN, VER","count":7,"rate":91.1899},{"long":-101.7067,"lat":19.1563,"state_code":16,"mun_code":9,"date":"2017-07-01","name":"ARIO, MICH","count":5,"rate":156.7659},{"long":-103.9984,"lat":19.0092,"state_code":6,"mun_code":1,"date":"2017-07-01","name":"ARMERIA, COL","count":11,"rate":390.4332},{"long":-87.0469,"lat":21.0124,"state_code":23,"mun_code":5,"date":"2017-07-01","name":"BENITO JUAREZ, QROO","count":28,"rate":39.2552},{"long":-99.1124,"lat":17.5237,"state_code":12,"mun_code":28,"date":"2017-07-01","name":"CHILAPA DE ALVAREZ, GRO","count":26,"rate":229.8202},{"long":-94.3974,"lat":18.1326,"state_code":30,"mun_code":39,"date":"2017-07-01","name":"COATZACOALCOS, VER","count":15,"rate":52.3604},{"long":-105.9918,"lat":23.4142,"state_code":25,"mun_code":4,"date":"2017-07-01","name":"CONCORDIA, SIN","count":9,"rate":339.8346},{"long":-94.5681,"lat":18.0162,"state_code":30,"mun_code":48,"date":"2017-07-01","name":"COSOLEACAQUE, VER","count":6,"rate":53.3232},{"long":-99.1504,"lat":19.3267,"state_code":9,"mun_code":3,"date":"2017-07-01","name":"COYOACAN, CDMX","count":6,"rate":11.4784},{"long":-108.679,"lat":26.2553,"state_code":25,"mun_code":10,"date":"2017-07-01","name":"EL FUERTE, SIN","count":10,"rate":110.2065},{"long":-102.9959,"lat":23.2368,"state_code":32,"mun_code":10,"date":"2017-07-01","name":"FRESNILLO, ZAC","count":17,"rate":86.2824},{"long":-101.6224,"lat":21.1247,"state_code":11,"mun_code":20,"date":"2017-07-01","name":"LEON, GTO","count":35,"rate":26.1476},{"long":-104.3027,"lat":19.1495,"state_code":6,"mun_code":7,"date":"2017-07-01","name":"MANZANILLO, COL","count":32,"rate":197.253},{"long":-97.4451,"lat":18.4613,"state_code":21,"mun_code":156,"date":"2017-07-01","name":"TEHUACAN, PUE","count":14,"rate":54.091},{"long":-104.8405,"lat":21.6216,"state_code":18,"mun_code":17,"date":"2017-07-01","name":"TEPIC, NAY","count":8,"rate":20.8221},{"long":-99.2062,"lat":19.1983,"state_code":9,"mun_code":12,"date":"2017-07-01","name":"TLALPAN, CDMX","count":6,"rate":10.4341},{"long":-101.2255,"lat":20.1832,"state_code":11,"mun_code":46,"date":"2017-07-01","name":"YURIRIA, GTO","count":5,"rate":76.7866}],"rvcv":[{"long":-95.0326,"lat":18.0367,"state_code":30,"mun_code":3,"date":"2017-07-01","name":"ACAYUCAN, VER","count":7,"rate":91.1899},{"long":-99.6974,"lat":17.3908,"state_code":12,"mun_code":29,"date":"2017-07-01","name":"CHILPANCINGO DE LOS BRAVO, GRO","count":50,"rate":216.5988},{"long":-96.9385,"lat":18.9324,"state_code":30,"mun_code":44,"date":"2017-07-01","name":"CORDOBA, VER","count":22,"rate":122.2996},{"long":-97.3646,"lat":18.859,"state_code":21,"mun_code":63,"date":"2017-07-01","name":"ESPERANZA, PUE","count":6,"rate":475.2894},{"long":-96.9901,"lat":18.9022,"state_code":30,"mun_code":68,"date":"2017-07-01","name":"FORTIN, VER","count":7,"rate":124.3504},{"long":-98.447,"lat":18.5019,"state_code":21,"mun_code":85,"date":"2017-07-01","name":"IZUCAR DE MATAMOROS, PUE","count":6,"rate":89.0264},{"long":-97.8239,"lat":18.9624,"state_code":21,"mun_code":118,"date":"2017-07-01","name":"LOS REYES DE JUAREZ, PUE","count":5,"rate":210.4397},{"long":-92.4976,"lat":14.8806,"state_code":7,"mun_code":54,"date":"2017-07-01","name":"MAZATAN, CHPS","count":9,"rate":354.2559},{"long":-94.3887,"lat":17.7114,"state_code":30,"mun_code":108,"date":"2017-07-01","name":"MINATITLAN, VER","count":16,"rate":111.844},{"long":-109.4027,"lat":27.0781,"state_code":26,"mun_code":42,"date":"2017-07-01","name":"NAVOJOA, SON","count":13,"rate":85.6312},{"long":-99.3917,"lat":19.625,"state_code":15,"mun_code":60,"date":"2017-07-01","name":"NICOLAS ROMERO, MEX","count":32,"rate":84.291},{"long":-97.199,"lat":18.8254,"state_code":30,"mun_code":115,"date":"2017-07-01","name":"NOGALES, VER","count":11,"rate":342.9774},{"long":-98.7822,"lat":20.1021,"state_code":13,"mun_code":48,"date":"2017-07-01","name":"PACHUCA DE SOTO, HGO","count":20,"rate":84.4117},{"long":-97.5356,"lat":18.835,"state_code":21,"mun_code":110,"date":"2017-07-01","name":"PALMAR DE BRAVO, PUE","count":23,"rate":567.3977},{"long":-99.8317,"lat":20.2241,"state_code":15,"mun_code":71,"date":"2017-07-01","name":"POLOTITLAN, MEX","count":7,"rate":559.8507},{"long":-97.6345,"lat":18.9482,"state_code":21,"mun_code":115,"date":"2017-07-01","name":"QUECHOLAC, PUE","count":7,"rate":155.6213},{"long":-114.3513,"lat":32.017,"state_code":26,"mun_code":55,"date":"2017-07-01","name":"SAN LUIS RIO COLORADO, SON","count":7,"rate":39.9524},{"long":-98.3431,"lat":19.073,"state_code":21,"mun_code":140,"date":"2017-07-01","name":"SAN PEDRO CHOLULA, PUE","count":7,"rate":61.8587},{"long":-100.8551,"lat":22.2716,"state_code":24,"mun_code":35,"date":"2017-07-01","name":"SOLEDAD DE GRACIANO SANCHEZ, SLP","count":5,"rate":18.7763},{"long":-97.9682,"lat":18.887,"state_code":21,"mun_code":153,"date":"2017-07-01","name":"TECALI DE HERRERA, PUE","count":6,"rate":309.3337},{"long":-98.9865,"lat":19.7058,"state_code":15,"mun_code":81,"date":"2017-07-01","name":"TECAMAC, MEX","count":122,"rate":305.1459},{"long":-97.4451,"lat":18.4613,"state_code":21,"mun_code":156,"date":"2017-07-01","name":"TEHUACAN, PUE","count":38,"rate":146.8183},{"long":-98.304,"lat":18.3532,"state_code":21,"mun_code":157,"date":"2017-07-01","name":"TEHUITZINGO, PUE","count":5,"rate":474.3833},{"long":-99.5692,"lat":18.967,"state_code":15,"mun_code":88,"date":"2017-07-01","name":"TENANCINGO, MEX","count":9,"rate":98.8351},{"long":-97.6289,"lat":18.6557,"state_code":21,"mun_code":177,"date":"2017-07-01","name":"TLACOTEPEC DE BENITO JUAREZ, PUE","count":16,"rate":352.1596},{"long":-99.1701,"lat":19.5427,"state_code":15,"mun_code":104,"date":"2017-07-01","name":"TLALNEPANTLA DE BAZ, MEX","count":354,"rate":576.1144},{"long":-98.3509,"lat":20.1236,"state_code":13,"mun_code":77,"date":"2017-07-01","name":"TULANCINGO DE BRAVO, HGO","count":14,"rate":95.4179},{"long":-97.4118,"lat":20.9348,"state_code":30,"mun_code":189,"date":"2017-07-01","name":"TUXPAN, VER","count":8,"rate":60.889},{"long":-93.1373,"lat":16.7394,"state_code":7,"mun_code":101,"date":"2017-07-01","name":"TUXTLA GUTIERREZ, CHPS","count":31,"rate":57.2061},{"long":-97.6783,"lat":18.7675,"state_code":21,"mun_code":205,"date":"2017-07-01","name":"YEHUALTEPEC, PUE","count":8,"rate":366.1211}],"rvsv":[{"long":-98.8897,"lat":20.3145,"state_code":13,"mun_code":3,"date":"2017-07-01","name":"ACTOPAN, HGO","count":28,"rate":545.6733},{"long":-98.5894,"lat":19.561,"state_code":29,"mun_code":6,"date":"2017-07-01","name":"CALPULALPAN, TLAX","count":19,"rate":437.2068},{"long":-92.8602,"lat":18.0091,"state_code":27,"mun_code":4,"date":"2017-07-01","name":"CENTRO, TAB","count":211,"rate":346.8958},{"long":-103.8245,"lat":20.3904,"state_code":14,"mun_code":24,"date":"2017-07-01","name":"COCULA, JAL","count":10,"rate":419.3292},{"long":-97.8264,"lat":18.9202,"state_code":21,"mun_code":38,"date":"2017-07-01","name":"CUAPIAXTLA DE MADERO, PUE","count":5,"rate":573.1936},{"long":-97.6675,"lat":19.0207,"state_code":21,"mun_code":65,"date":"2017-07-01","name":"GENERAL FELIPE ANGELES, PUE","count":7,"rate":391.7984},{"long":-98.4488,"lat":19.1671,"state_code":21,"mun_code":74,"date":"2017-07-01","name":"HUEJOTZINGO, PUE","count":10,"rate":168.699},{"long":-103.2074,"lat":20.3916,"state_code":14,"mun_code":44,"date":"2017-07-01","name":"IXTLAHUACAN DE LOS MEMBRILLOS, JAL","count":9,"rate":185.2367},{"long":-97.8239,"lat":18.9624,"state_code":21,"mun_code":118,"date":"2017-07-01","name":"LOS REYES DE JUAREZ, PUE","count":7,"rate":294.6156},{"long":-96.1619,"lat":18.9883,"state_code":30,"mun_code":105,"date":"2017-07-01","name":"MEDELLIN DE BRAVO, VER","count":6,"rate":90.4737},{"long":-98.7822,"lat":20.1021,"state_code":13,"mun_code":48,"date":"2017-07-01","name":"PACHUCA DE SOTO, HGO","count":132,"rate":557.1175},{"long":-99.9771,"lat":25.7368,"state_code":19,"mun_code":41,"date":"2017-07-01","name":"PESQUERIA, NL","count":8,"rate":315.7396},{"long":-98.1755,"lat":19.0086,"state_code":21,"mun_code":114,"date":"2017-07-01","name":"PUEBLA, PUE","count":295,"rate":206.0544},{"long":-102.3407,"lat":22.2674,"state_code":1,"mun_code":7,"date":"2017-07-01","name":"RINCON DE ROMOS, AGS","count":10,"rate":215.2531},{"long":-98.3431,"lat":19.073,"state_code":21,"mun_code":140,"date":"2017-07-01","name":"SAN PEDRO CHOLULA, PUE","count":18,"rate":159.0651},{"long":-100.7444,"lat":17.4059,"state_code":12,"mun_code":57,"date":"2017-07-01","name":"TECPAN DE GALEANA, GRO","count":5,"rate":89.3039},{"long":-100.2131,"lat":18.8738,"state_code":15,"mun_code":82,"date":"2017-07-01","name":"TEJUPILCO, MEX","count":8,"rate":113.3298},{"long":-104.8405,"lat":21.6216,"state_code":18,"mun_code":17,"date":"2017-07-01","name":"TEPIC, NAY","count":19,"rate":49.4525},{"long":-98.0764,"lat":19.4822,"state_code":29,"mun_code":31,"date":"2017-07-01","name":"TETLA DE LA SOLIDARIDAD, TLAX","count":7,"rate":243.4279},{"long":-99.4322,"lat":19.1623,"state_code":15,"mun_code":101,"date":"2017-07-01","name":"TIANGUISTENCO, MEX","count":16,"rate":229.0429},{"long":-97.6289,"lat":18.6557,"state_code":21,"mun_code":177,"date":"2017-07-01","name":"TLACOTEPEC DE BENITO JUAREZ, PUE","count":16,"rate":352.1596},{"long":-98.3509,"lat":20.1236,"state_code":13,"mun_code":77,"date":"2017-07-01","name":"TULANCINGO DE BRAVO, HGO","count":63,"rate":429.3805},{"long":-97.6783,"lat":18.7675,"state_code":21,"mun_code":205,"date":"2017-07-01","name":"YEHUALTEPEC, PUE","count":5,"rate":228.8257}],"lesions":[{"long":-102.2958,"lat":21.8114,"state_code":1,"mun_code":1,"date":"2017-07-01","name":"AGUASCALIENTES, AGS","count":250,"rate":327.0783},{"long":-101.0218,"lat":19.8735,"state_code":16,"mun_code":3,"date":"2017-07-01","name":"ALVARO OBREGON, MICH","count":5,"rate":259.205},{"long":-103.9984,"lat":19.0092,"state_code":6,"mun_code":1,"date":"2017-07-01","name":"ARMERIA, COL","count":6,"rate":212.9636},{"long":-102.0456,"lat":22.1265,"state_code":1,"mun_code":2,"date":"2017-07-01","name":"ASIENTOS, AGS","count":13,"rate":298.1254},{"long":-99.846,"lat":19.81,"state_code":15,"mun_code":14,"date":"2017-07-01","name":"ATLACOMULCO, MEX","count":38,"rate":390.0564},{"long":-102.7049,"lat":21.9007,"state_code":1,"mun_code":3,"date":"2017-07-01","name":"CALVILLO, AGS","count":9,"rate":177.2782},{"long":-98.0406,"lat":21.0033,"state_code":30,"mun_code":58,"date":"2017-07-01","name":"CHICONTEPEC, VER","count":8,"rate":167.9925},{"long":-106.2325,"lat":29.0006,"state_code":8,"mun_code":19,"date":"2017-07-01","name":"CHIHUAHUA, CHIH","count":68,"rate":84.855},{"long":-103.9208,"lat":19.1881,"state_code":6,"mun_code":4,"date":"2017-07-01","name":"COQUIMATLAN, COL","count":10,"rate":530.1727},{"long":-100.6598,"lat":25.809,"state_code":19,"mun_code":18,"date":"2017-07-01","name":"GARCIA, NL","count":45,"rate":261.0319},{"long":-97.029,"lat":18.8506,"state_code":30,"mun_code":85,"date":"2017-07-01","name":"IXTACZOQUITLAN, VER","count":10,"rate":165.1296},{"long":-102.4456,"lat":21.9321,"state_code":1,"mun_code":5,"date":"2017-07-01","name":"JESUS MARIA, AGS","count":31,"rate":312.6438},{"long":-99.6418,"lat":19.7434,"state_code":15,"mun_code":56,"date":"2017-07-01","name":"MORELOS, MEX","count":5,"rate":181.7071},{"long":-109.4027,"lat":27.0781,"state_code":26,"mun_code":42,"date":"2017-07-01","name":"NAVOJOA, SON","count":7,"rate":46.1091},{"long":-101.7151,"lat":21.8108,"state_code":14,"mun_code":64,"date":"2017-07-01","name":"OJUELOS DE JALISCO, JAL","count":5,"rate":178.5063},{"long":-99.5273,"lat":19.4506,"state_code":15,"mun_code":67,"date":"2017-07-01","name":"OTZOLOTEPEC, MEX","count":13,"rate":164.1275},{"long":-100.9151,"lat":20.2076,"state_code":11,"mun_code":28,"date":"2017-07-01","name":"SALVATIERRA, GTO","count":11,"rate":127.6003},{"long":-98.1911,"lat":20.4685,"state_code":13,"mun_code":53,"date":"2017-07-01","name":"SAN BARTOLO TUTOTEPEC, HGO","count":6,"rate":379.8377},{"long":-102.229,"lat":22.0331,"state_code":1,"mun_code":11,"date":"2017-07-01","name":"SAN FRANCISCO DE LOS ROMO, AGS","count":5,"rate":138.4929},{"long":-103.8696,"lat":18.902,"state_code":6,"mun_code":9,"date":"2017-07-01","name":"TECOMAN, COL","count":18,"rate":161.4884},{"long":-97.0524,"lat":18.5299,"state_code":30,"mun_code":159,"date":"2017-07-01","name":"TEHUIPANGO, VER","count":7,"rate":317.4659},{"long":-99.4694,"lat":18.101,"state_code":12,"mun_code":59,"date":"2017-07-01","name":"TEPECOACUILCO DE TRUJANO, GRO","count":5,"rate":183.8532},{"long":-97.1049,"lat":18.6094,"state_code":30,"mun_code":184,"date":"2017-07-01","name":"TLAQUILPA, VER","count":10,"rate":1508.5611},{"long":-103.2489,"lat":25.1701,"state_code":5,"mun_code":35,"date":"2017-07-01","name":"TORREON, COAH","count":83,"rate":135.8684},{"long":-97.5813,"lat":19.8544,"state_code":21,"mun_code":207,"date":"2017-07-01","name":"ZACAPOAXTLA, PUE","count":8,"rate":161.4164}],"ext":[{"long":-110.6633,"lat":24.1905,"state_code":3,"mun_code":3,"date":"2017-07-01","name":"LA PAZ, BCS","count":5,"rate":18.9691},{"long":-98.9865,"lat":19.7058,"state_code":15,"mun_code":81,"date":"2017-07-01","name":"TECAMAC, MEX","count":8,"rate":20.0096}]}
